,FCLTY_NM,LCLAS_NM,ZIP_NO,FCLTY_ROAD_NM_ADDR,lat,lon,OPTN_DC,ADIT_DC,AREA
0,강릉야행북카페,북카페,25528.0,"강원 강릉시 임영로155번길 6 1층 45,47호",37.75507449,128.8908507,"가득 들어선 책장과 우드테이블, 조명을 통해 아기자기하고 따뜻한 느낌을 받을 수 있는 카페",카페 : 있음,강원
1,북카페 봄날에 연애,북카페,26417.0,강원 원주시 옛시청길 20,37.35267182,127.9445849,"텃밭에서 직접 키운 애플민트로 만드는 쿠바 정통 모힘또, 작가 사인본을 비롯한 신간을 판매",카페 : 있음,강원
2,북카페 책 있는 숲,북카페,26021.0,강원 태백시 황지로 28 / 3층,37.16134323,128.9907952,"""중고서적을 판매하며 여유롭게 차를 마실 수 있는 공간, 책도 읽고 공부도 할 수 있음","주차 : 가능, 카페 : 있음",강원
3,북카페 뜨락,북카페,24114.0,강원 화천군 화천읍 산천어길 79,38.10878303,127.7115643,"안락하고 모던한 분위기의 북카페, 밸런스 좋은 커피와 신선한 디저트 준비","주차 : 가능, 화장실 남녀구분 : 구분, 카페 : 있음",강원
4,한낮의 바다,독립서점,25505.0,"강원도 강릉시 강릉대로159번안길 12 1층, 서점 한낮의 바다",37.75772063,128.8890879,일상의 쉼을 이야기하는 책을 소개하는 셀렉트 북샵,카페 : 있음,강원
5,안목책방,북카페,25560.0,강원도 강릉시 경강로 2581 1층1호,37.77373799,128.9417205,안목있는 분들이 좋은책 골라가시는 책방,"주차 : 가능, 카페 : 있음",강원
6,명주사랑채,북카페,25538.0,강원도 강릉시 경강로2046번길 11,37.75087376,128.8931483,독서활동장소,"카페 : 있음, 리뷰여부 : 있음",강원
7,북스북스,북카페,25510.0,강원도 강릉시 솔올로 66 문화빌딩 2층,37.76778024,128.8789814,만화카페,"화장실 남녀구분 : 구분, 카페 : 있음",강원
8,카페에세이,북카페,25429.0,강원도 강릉시 연곡면 영진길 33 ES프라우드 101호,37.87126334,128.8399422,영진해변과 도깨비 촬영지에서 가까워 피크닉 세트를 대영해서 해변에서 피크닉을 즐길 수 있음,"주차 : 가능, 카페 : 있음",강원
9,고래책방,일반서점,25551.0,강원도 강릉시 율곡로 2848,37.75823514,128.8972155,책과 은은한 커피와 빵굽는 냄새로 가득한 고래책방,"주차 : 가능, 화장실 남녀구분 : 구분, 카페 : 있음",강원
10,책다방,북카페,25516.0,강원도 강릉시 정원로 78-9,37.76350145,128.8731987,"커피향보다 진한 사람냄새나는 북카페, 프랑스 자수에 관심있는 분들을 위한 자수 놓는 공간","주차 : 가능, 카페 : 있음",강원
11,북카페 모모,카페,25532.0,강원도 강릉시 토성로 180 모모의 외출,37.75672359,128.8957596,독서활동장소,카페 : 있음,강원
12,마나카페,북카페,25768.0,강원도 동해시 대학로 14 105호,37.52167056,129.1136095,독서활동장소,"화장실 남녀구분 : 구분, 카페 : 있음",강원
13,해뜰카페테리아,북카페,25701.0,강원도 동해시 동해대로 6261,37.59123873,129.0894075,독서활동장소,카페 : 있음,강원
14,카페인51,북카페,25813.0,강원도 동해시 오일장길 23-1 1층,37.48176917,129.1261654,"동해시 북평장에 위치한 카페, 다양한 음료와 디저트를 판매","주차 : 가능, 화장실 남녀구분 : 구분, 카페 : 있음",강원
15,서호책방,일반서점,25807.0,강원도 동해시 청운로 84 1동 103호,37.48757773,129.1030215,큐레이션 책방과 카페,"주차 : 가능, 카페 : 있음",강원
16,내고향탄광촌북까페,북카페,25947.0,강원도 삼척시 강원남부로 1446,37.23376667,129.0423632,독서활동장소,카페 : 있음,강원
17,만화인카페,북카페,25920.0,강원도 삼척시 진주로 26 신세기상가,37.44277223,129.1641855,만화케페,카페 : 있음,강원
18,설악산책,카페,24867.0,강원도 속초시 관광로 439,38.19864821,128.5351101,"누구나 자유롭게 방문 가능한 복합 문화 공간, 1만여권의 도서를 열람할 수 있는 북카페","주차 : 가능, 화장실 남녀구분 : 구분, 카페 : 있음",강원
19,느린커피,북카페,24874.0,강원도 속초시 동해대로 4165,38.19109031,128.579272,다양한 메뉴와 책을 접할 수 있는 북카페[,"화장실 남녀구분 : 구분, 카페 : 있음",강원
20,서재,카페,24827.0,강원도 속초시 번영로 142,38.21136465,128.5893674,책과 커피가 있는 작은 공간,"주차 : 가능, 카페 : 있음",강원
21,완벽한 날들,북스테이,24827.0,강원도 속초시 수복로259번길 7,38.21054665,128.5910815,"서점과 카페, 게스트하우스가 함께하는 복합문화공간",카페 : 있음,강원
22,카페 골목길,북카페,24835.0,강원도 속초시 중앙로129번길 8,38.20318386,128.5902192,독서활동장소,카페 : 있음,강원
23,인디문학 1호점,일반서점,26237.0,강원도 영월군 영월읍 하송로 97,37.17963656,128.4609435,"문학전문, 독립출판물, 동네책방, 커피, 차, 맥주",카페 : 있음,강원
24,북까페버드힐,북카페,26455.0,강원도 원주시 고문골길 104-14,37.33750406,128.0083457,치악산 경치가 아름다운 곳에서 에니어그램전문가가 교육도 가능,"주차 : 가능, 카페 : 있음",강원
25,카페틔움,북카페,26412.0,강원도 원주시 남산로 209,37.35471171,127.9420844,"청소년들의 길잡이별, 동네 사랑방 공간, 책과 커피가 있는 힐링공간",카페 : 있음,강원
26,망스의북다방,만화방,26392.0,강원도 원주시 능라동길 48,37.33436489,127.92995,"편하ㅔ 만화책 볼 수 있는 공간, 즐겁게 데이트 할 수 있는 공간","주차 : 가능, 화장실 남녀구분 : 구분, 카페 : 있음",강원
27,코이노니아,북카페,26471.0,강원도 원주시 라옹정길 3-13,37.31820852,127.9639814,음료와 책을 즐길 수 있는 북카페,카페 : 있음,강원
28,달빛마루,북카페,26310.0,강원도 원주시 소초면 상황골길 19,37.36678995,128.0041205,독서활동장소,카페 : 있음,강원
29,긴뿔달린토끼,북카페,26388.0,강원도 원주시 시청로 82 2층 202호,37.33660616,127.9277184,그림책과 무료동화구연 및 책관련 프로그램 운영하는 북카페,"화장실 남녀구분 : 구분, 카페 : 있음",강원
30,북소리,일반서점,26340.0,강원도 원주시 우산초교길 74,37.36820011,127.9343837,-,카페 : 있음,강원
31,소소북카페,북카페,26431.0,강원도 원주시 일산로 81-2,37.34648225,127.9518715,-,카페 : 있음,강원
32,느림의 미학,북카페,26483.0,강원도 원주시 천매봉길 126-12 1층 느림의 미학,37.32548528,127.9436372,독서활동장소,카페 : 있음,강원
33,동네책방 스몰굿씽,북카페,26399.0,강원도 원주시 판부면 매봉길 52-1,37.32051966,127.9454534,"별 것 아닌 것 같지만, 도움이 되는 동네책방카페, 독립출판물, 추천서적, 중고서적 판매",카페 : 있음,강원
34,터득골북샵,북카페,26492.0,강원도 원주시 흥업면 대안로 511-42,37.26799924,127.8723193,브런치와 카페를 함께 즐길 수 있는 북카페,카페 : 있음,강원
35,나무와새,카페,26494.0,강원도 원주시 흥업면 북원로 1507-2,37.28527279,127.9122706,"다양한 분야의 책과 커피가 있는 북카페, 연세대 원주캠퍼스 부근의 2층 건물",카페 : 있음,강원
36,책방 나무야,일반서점,24634.0,강원도 인제군 인제읍 비봉로44번길 14,38.06516378,128.1733877,"작은 도서관 운영자가 만든 큐레이션 책방, 카페","주차 : 가능, 화장실 남녀구분 : 구분, 카페 : 있음",강원
37,북 카페 레일,카페,26105.0,강원도 정선군 여량면 달뜬골길 26,37.47583297,128.7287036,펜션 내 카페,카페 : 있음,강원
38,예부룩,북카페,24387.0,강원도 춘천시 공지로 153,37.85937438,127.7449525,설명이 필요없는 상문아저씨의 카페!,카페 : 있음,강원
39,남이아일랜드북까페,북카페,24464.0,강원도 춘천시 남산면 남이섬길 1,37.78903622,127.5264549,독서활동장소,카페 : 있음,강원
40,있는그대로,일반서점,24405.0,강원도 춘천시 동내면 거두택지길14번길 18 1층,37.85153193,127.7539582,큐레이션 책방,카페 : 있음,강원
41,굿라이프,북카페,24339.0,강원도 춘천시 미려골길25번길 12,37.8714966,127.7357331,굿라이프는 책이 더 나은 세상을 만든다는 믿음으로 운영하는 곳,카페 : 있음,강원
42,큐플레이스,북카페,24262.0,강원도 춘천시 삭주로 44,37.88225195,127.7360673,독서활동장소,카페 : 있음,강원
43,살롱 드 노마드 춘천,북카페,24261.0,강원도 춘천시 서부대성로 87,37.88144578,127.7324194,"살롱 드 노마드는 따로 또 함께 마시고, 읽고, 수다하는 카페",카페 : 있음,강원
44,느린거북이,북카페,24289.0,강원도 춘천시 서부대성로239번길 19,37.8742154,127.7455658,"어른이들을 위한 동화와 개성있는 독립출판물이 있음, 수제과일청으로 만드는 에이드와 생과일쥬스 판매",카페 : 있음,강원
45,북카페 꿈순이,북카페,24256.0,강원도 춘천시 성심로47번길 46,37.88128191,127.7449176,독서활동장소,"화장실 남녀구분 : 구분, 카페 : 있음",강원
46,북카페 시립도서관점,북카페,24327.0,강원도 춘천시 우석로 102 시립도서관,37.86386237,127.7573288,독서활동장소,카페 : 있음,강원
47,책방마실,독립서점,24259.0,강원도 춘천시 전원길 27-1,37.87837259,127.7379276,춘천에 위치한 작은 서점,카페 : 있음,강원
48,데미안책방,일반서점,24364.0,강원도 춘천시 춘천로17번길 37,37.86769244,127.7179612,강원 최대 규모의 책방,"주차 : 가능, 화장실 남녀구분 : 구분, 카페 : 있음",강원
49,북카페 창,북카페,24414.0,강원도 춘천시 퇴계농공로 10,37.85239896,127.7440427,-,카페 : 있음,강원
50,서툰책방,독립서점,24264.0,강원도 춘천시 향교옆길13번길 22,37.88283761,127.7327685,큐레이션 책방,"주차 : 가능, 카페 : 있음",강원
51,막장책방,일반서점,26047.0,강원도 태백시 하장성1길 4,37.10365746,129.0221574,-,카페 : 있음,강원
52,영애네북카페,북카페,25352.0,강원도 평창군 대관령면 올림픽로 715 타워콘도 2층,37.65126647,128.6848273,독서활동장소,카페 : 있음,강원
53,안단테 북펜션&카페,북스테이,25366.0,강원도 평창군 방림면 칡사리길 167,37.4303662,128.2668884,"펜션 내 카페, 방문 시 숙박 손님에게 음료 무료 제공, 손수 준비한 무료 조식 제공",카페 : 있음,강원
54,세수작,북카페,25306.0,강원도 평창군 봉평면 태기로 93 북카페 세수작,37.58771726,128.3216324,"스키슬로프가 눈 앞에 펼쳐져 있는 멋진 장소, 세 사람의 손으로, 마음으로 정성스럽게 다듬은 책과 커피가 있음","주차 : 가능, 화장실 남녀구분 : 구분, 카페 : 있음",강원
55,휴여가북카페,북카페,25268.0,강원도 횡성군 안흥면 영동고속도로 154,37.46353268,128.1359127,독서활동장소,카페 : 있음,강원
56,라북,일반서점,25223.0,강원도 횡성군 횡성읍 북천로 4,37.49400886,127.9907864,독서활동장소,카페 : 있음,강원
57,커피행성,일반서점,25222.0,강원도 횡성군 횡성읍 삼일로 60,37.49477513,127.9864,커피와 인문서적 등,"주차 : 가능, 카페 : 있음",강원
58,북카페 헤밍웨이,북카페,10591.0,경기도 고양시 덕양구 동송로 70 힐스테이트삼송 상가 214호,37.65263717,126.8961017,"최신 유행하고 있는 유명한 책들 구비, 책 대여 가능, 책 추천 가능, 최고급 원두 사용","주차 : 가능, 카페 : 있음",경기
59,북카페달마시안,북카페,10523.0,경기도 고양시 덕양구 충경로 38 맥도날드건물 2층,37.61522991,126.833689,"만화도 보고, 카페도 즐길 수 있는 남녀노소 누구나 이용가능한 최적의 북카페, 책 대여 가능","화장실 남녀구분 : 구분, 카페 : 있음",경기
60,갤러리북카페 나무에새긴마음,북카페,10449.0,경기도 고양시 일산동구 호수로 358-25 동문굿모닝타워2차 216호,37.63992588,126.7862472,"작은 전시회, 독서모임, 동호회 모임들으로 좋은 장소, 문화예술 도서 1500여 권 비치","주차 : 가능, 화장실 남녀구분 : 구분, 카페 : 있음, 리뷰여부 : 있음",경기
61,예담북카페,북카페,12275.0,경기도 남양주시 와부읍 덕소로 270 한강우성아파트102동,37.57811601,127.222014,조용하고 쾌적한 분위기,"주차 : 가능, 화장실 남녀구분 : 구분, 카페 : 있음, 리뷰여부 : 있음",경기
62,더불어꿈협동조합 북카페,북카페,11350.0,경기도 동두천시 지행로 50 7층 더불어꿈협동조합 북카페 더;꿈,37.89208213,127.0525809,더불어 꿈 협동조합에서 운영하는 북카페,"화장실 남녀구분 : 구분, 카페 : 있음, 리뷰여부 : 있음",경기
63,여민동락,북카페,16227.0,경기도 수원시 영통구 창룡대로 265 수원역사박물관,37.29763563,127.0356232,"가성비 좋은 카페, 수원박물관 내부 카페","주차 : 가능, 화장실 남녀구분 : 구분, 카페 : 있음, 리뷰여부 : 있음",경기
64,북카페 베소라,북카페,15066.0,경기도 시흥시 중심상가4길 10 5층,37.34446902,126.738235,"일반 소설부터 환타지, 만화, 스포츠, 웹툰 등 다양한 도서 구비","화장실 남녀구분 : 구분, 카페 : 있음, 리뷰여부 : 있음",경기
65,에코의서재,북카페,16897.0,경기도 용인시 기흥구 죽전로15번길 11-3,37.32150243,127.1099992,"움베르토 에코의 서재를 모티브로 한 서재카페, 다양한 종류의 책 1500권을 소장, 회원들에게 서비스로 책 대여","주차 : 가능, 카페 : 있음, 리뷰여부 : 있음",경기
66,리프레시 북&카페,북카페,11800.0,경기도 의정부시 서광로 135 센타프라자 405호,37.72888703,127.1110453,"매월 200권 가량의 새책이 꾸준하게 들어오는 카페, 3200여종의 도서 마케팅을 진행, 약 5천여권의 보유장서","주차 : 가능, 화장실 남녀구분 : 구분, 카페 : 있음, 리뷰여부 : 있음",경기
67,심심푸리 이천로데오점,북카페,17369.0,경기도 이천시 어재연로37번길 18,37.28036578,127.4447848,"만화카페, 남녀노소 누구나 편안하게 다녀갈 수 있는 카페","화장실 남녀구분 : 구분, 카페 : 있음, 리뷰여부 : 있음",경기
68,쑬딴스북카페,북카페,10859.0,경기도 파주시 탄현면 헤이리마을길 21-7 더 장미건물 1층,37.78825921,126.6961109,"전공 공예 작품, 도자기 공방, 물레 체험, 신진 작가들의 작품 전시 갤러리 등 다양한 체험 가능","주차 : 가능, 화장실 남녀구분 : 구분, 카페 : 있음, 리뷰여부 : 있음",경기
69,북카페 반디,북카페,10859.0,경기도 파주시 탄현면 헤이리마을길 37-16,37.78774217,126.6974256,"다양한 분야의 6,000여권의 책, 잡지, 대부분의 책 구매 가능","주차 : 가능, 화장실 남녀구분 : 구분, 카페 : 있음",경기
70,밀크북,북카페,10881.0,경기도 파주시 회동길 121,37.70749853,126.6875588,"어린이 책방, 음악을 들으면서 독서활동","주차 : 가능, 화장실 남녀구분 : 구분, 카페 : 있음, 리뷰여부 : 있음",경기
71,북카페눈,북카페,10881.0,경기도 파주시 회동길 125-11,37.70753928,126.6871725,"커피는 물론, 매장에서 직접 만든 디저트와 차를 맛볼 수 있음","주차 : 가능, 화장실 남녀구분 : 구분, 카페 : 있음, 리뷰여부 : 있음",경기
72,북카페 파랑,북카페,10881.0,경기도 파주시 회동길 337-16,37.71658165,126.6917086,분위기 있게 책도 읽을 수 있고 신선한 과일주스도 마실 수 있음,"주차 : 가능, 화장실 남녀구분 : 구분, 카페 : 있음, 리뷰여부 : 있음",경기
73,셀라북카페,북카페,17855.0,경기도 평택시 비전9길 22-1 1층,37.00318089,127.109454,"반려동물 동반가능, 소통을 위한 쉼의 공간, 아이들을 위한 동화책","주차 : 가능, 카페 : 있음, 리뷰여부 : 있음",경기
74,쉴북만화카페,북카페,12968.0,경기도 하남시 신평로 61,37.53922285,127.2052525,"만화책과 향이 좋은 커피를 함께 즐길 수 있음, 편안한 토굴방과 푹힌한 쇼파석 준비","카페 : 있음, 리뷰여부 : 있음",경기
75,책사랑 어린이서점,아동서점,18476.0,경기도 화성시 동탄대로시범길 148-20,37.20032961,127.1144878,아동전집도서전문점,"주차 : 가능, 화장실 남녀구분 : 구분, 카페 : 있음, 리뷰여부 : 있음",경기
76,북카페W,북카페,18378.0,경기도 화성시 영통로61번길 11 301호,37.23464026,127.0614001,독서활동,"주차 : 가능, 화장실 남녀구분 : 구분, 카페 : 있음, 리뷰여부 : 있음",경기
77,심심푸리북만화카페,만화방,18611.0,경기도 화성시 향남읍 상신하길로298번길 11 gbnt빌딩 스마트병원 7층,37.11472407,126.9110484,"만화카페, 넓은 공간, 깔끔한 인테리어, 데이트하기 좋은장소","화장실 남녀구분 : 구분, 카페 : 있음, 리뷰여부 : 있음",경기
78,놀숲 고양삼송점,만화방,10571.0,경기도 고양시 덕양구 권율대로 894 3층,37.66323094,126.8903854,"일상에 즐거운 경험을 더하는 문화공간 카툰앤북카페, 편안한 좌석에서 맛있는 음식과 함께 책도 볼 수 있는 멀티 엔터테인먼트","화장실 남녀구분 : 구분, 카페 : 있음, 리뷰여부 : 있음",경기
79,놀숲 도래울점,만화방,10551.0,경기도 고양시 덕양구 도래울로 110 405호,37.63491758,126.8724814,"일상에 즐거운 경험을 더하는 문화공간 카툰앤북카페, 편안한 좌석에서 맛있는 음식과 함께 책도 볼 수 있는 멀티 엔터테인먼트",카페 : 있음,경기
80,이야기마을,독립서점,10298.0,경기도 고양시 덕양구 원당로113번길 48-7,37.66347899,126.8359472,"다양한 도서, 고양이, 음료,""독립서점""출판물","카페 : 있음, 리뷰여부 : 있음",경기
81,플라뇌즈,독립서점,10460.0,경기도 고양시 덕양구 원당로59번길 49-24 203호,37.65862231,126.8312139,"국내외도서, ""독립서점""출판물 등 동네책방","카페 : 있음, 리뷰여부 : 있음",경기
82,놀숲 항공대점,만화방,10540.0,경기도 고양시 덕양구 중앙로 201 2층,37.60481593,126.8677417,"일상에 즐거운 경험을 더하는 문화공간 카툰앤북카페, 편안한 좌석에서 맛있는 음식과 함께 책도 볼 수 있는 멀티 엔터테인먼트","주차 : 가능, 화장실 남녀구분 : 구분, 카페 : 있음",경기
83,놀숲 일산화정점,만화방,10503.0,경기도 고양시 덕양구 중앙로 628 예일프라자층건물 4층 402호,37.62753475,126.8289115,"일상에 즐거운 경험을 더하는 문화공간 카툰앤북카페, 편안한 좌석에서 맛있는 음식과 함께 책도 볼 수 있는 멀티 엔터테인먼트","주차 : 가능, 화장실 남녀구분 : 구분, 카페 : 있음",경기
84,미스터버티고책방,일반서점,10450.0,경기도 고양시 일산동구 강송로 33,37.64150962,126.7913055,커피도 팔고 생맥주도 팔고 책도 파느 문학 전문 작은 책방 겸 카페,"주차 : 가능, 카페 : 있음, 리뷰여부 : 있음",경기
85,라비브북스,북카페,10359.0,경기도 고양시 일산동구 무궁화로141번길 16-7,37.67045004,126.7770124,"커피가 있는 작은 동네서점 - 책, 커피, 빈티지컵","카페 : 있음, 리뷰여부 : 있음",경기
86,커피테라피인문학북카페,북카페,10420.0,경기도 고양시 일산동구 백석로71번길 46,37.64847583,126.7842204,독서활동장소,"카페 : 있음, 리뷰여부 : 있음",경기
87,북앤드,북카페,10306.0,경기도 고양시 일산동구 숲속마을로 50-38 202호,37.66794709,126.7987213,"책, 커피, 독서","주차 : 가능, 화장실 남녀구분 : 구분, 카페 : 있음, 리뷰여부 : 있음",경기
88,너의 작업실,독립서점,10406.0,경기도 고양시 일산동구 일산로380번길 43-11,37.67095691,126.7830747,"""독립서점""출판물과 굿즈, 커피 판매하며 다양한 모임이 열리는 공간","카페 : 있음, 리뷰여부 : 있음",경기
89,놀숲 일산웨스턴돔점,만화방,10402.0,경기도 고양시 일산동구 정발산로 27 3층,37.6569289,126.7718492,"일상에 즐거운 경험을 더하는 문화공간 카툰앤북카페, 편안한 좌석에서 맛있는 음식과 함께 책도 볼 수 있는 멀티 엔터테인먼트","주차 : 가능, 화장실 남녀구분 : 구분, 카페 : 있음",경기
90,알라딘중고서점 COFFEE 일산점,중고서점,10401.0,경기도 고양시 일산동구 중앙로1275번길 56 루비튜스데이,37.65925338,126.769875,중고서점,"화장실 남녀구분 : 구분, 카페 : 있음, 헌책방 : 있음, 리뷰여부 : 있음",경기
91,놀숲 일산라페스타점,만화방,10401.0,경기도 고양시 일산동구 중앙로1275번길 60-30 라페스타B,37.66021531,126.769111,"일상에 즐거운 경험을 더하는 문화공간 카툰앤북카페, 편안한 좌석에서 맛있는 음식과 함께 책도 볼 수 있는 멀티 엔터테인먼트","화장실 남녀구분 : 구분, 카페 : 있음",경기
92,광성북카페,북카페,10231.0,경기도 고양시 일산서구 경의로 956,37.70287015,126.7596972,독서활동장소,"화장실 남녀구분 : 구분, 카페 : 있음",경기
93,고메북스,독립서점,10379.0,경기도 고양시 일산서구 중앙로 1470 동부썬프라자 B동 128호,37.67227362,126.7573465,"동네서점 ""독립서점""출판 북카페&바","주차 : 가능, 화장실 남녀구분 : 구분, 카페 : 있음, 리뷰여부 : 있음",경기
94,타샤의책방,북카페,13837.0,경기도 과천시 별양상가1로 37 신라상가 3층,37.42842032,126.9937867,어린이 그림서적이 많은 북카페,"카페 : 있음, 리뷰여부 : 있음",경기
95,북카페,북카페,14316.0,경기도 광명시 금하로 458,37.4483914,126.8833098,-,카페 : 있음,경기
96,놀숲 광명소하점,만화방,14316.0,경기도 광명시 소하로 78 5층,37.44792066,126.8833518,"일상에 즐거운 경험을 더하는 문화공간 카툰앤북카페, 편안한 좌석에서 맛있는 음식과 함께 책도 볼 수 있는 멀티 엔터테인먼트","주차 : 가능, 화장실 남녀구분 : 구분, 카페 : 있음",경기
97,세컨드페이지북스,일반서점,14249.0,경기도 광명시 오리로 921,37.47745319,126.8605721,"여행과 세계, 취향을 대화하는 북","카페 : 있음, 리뷰여부 : 있음",경기
98,북앤빅뱅 광명점,만화방,14217.0,경기도 광명시 오리로 936,37.47825647,126.8591063,"매월 신간 수백만원 구매 고양이카페, 3만권이상 보유","화장실 남녀구분 : 구분, 카페 : 있음",경기
99,새마을금고장학회북카페,북카페,14286.0,경기도 광명시 오리로 985,37.47940568,126.8537425,독서활동 장소,카페 : 있음,경기
100,근근넝넝,일반서점,11441.0,경기도 광주시 오포읍 청석로 72 우방아이유쉘 2단지 상가동 105호,37.39459043,127.2590268,그림서적서점&카페,"주차 : 가능, 화장실 남녀구분 : 구분, 카페 : 있음, 리뷰여부 : 있음",경기
101,놀숲 광주태전점,만화방,12785.0,경기도 광주시 태봉로 24 2층,37.39128564,127.2302799,"일상에 즐거운 경험을 더하는 문화공간 카툰앤북카페, 편안한 좌석에서 맛있는 음식과 함께 책도 볼 수 있는 멀티 엔터테인먼트","카페 : 있음, 리뷰여부 : 있음",경기
102,서행구간,일반서점,12713.0,경기도 광주시 퇴촌면 천진암로 596 1층,37.45869768,127.3313537,"일반출판물, ""독립서점""출판물, 카페","주차 : 가능, 카페 : 있음, 리뷰여부 : 있음",경기
103,영풍문고 구리 롯데아울렛점,일반서점,11915.0,경기도 구리시 동구릉로136번길 47 롯데아울렛 1층,37.61186145,127.1405447,금요일 영업시간 주말과 같음. 다양한 국내외도서 취급,"주차 : 가능, 카페 : 있음, 리뷰여부 : 있음",경기
104,나인빌리지북스,독립서점,11936.0,경기도 구리시 아차산로432번길 4 1층 나인빌리지북스,37.59339791,127.1315991,"""독립서점""출판물 취급 전문 서점","카페 : 있음, 리뷰여부 : 있음",경기
105,글이야기,일반서점,11934.0,경기도 구리시 안골로 40,37.59693889,127.1355316,다양한 국내외도서 취급,"화장실 남녀구분 : 구분, 카페 : 있음, 리뷰여부 : 있음",경기
106,놀숲 구리돌다리점,만화방,11927.0,경기도 구리시 안골로77번길 47 2층,37.59947796,127.1393985,"일상에 즐거운 경험을 더하는 문화공간 카툰앤북카페, 편안한 좌석에서 맛있는 음식과 함께 책도 볼 수 있는 멀티 엔터테인먼트","주차 : 가능, 화장실 남녀구분 : 구분, 카페 : 있음, 리뷰여부 : 있음",경기
107,밸류브릿지터무니책방,독립서점,15806.0,경기도 군포시 금산로 84 4층,37.36957653,126.9376917,책방/갤러리/카페/세미나 공간이 함께 있는 책공간,"화장실 남녀구분 : 구분, 카페 : 있음, 리뷰여부 : 있음",경기
108,북앤빅뱅 산본점,만화방,15865.0,경기도 군포시 산본로323번길 16-30 7층,37.36018549,126.9316068,"만화 3만권 이상 신간 다수, 고양이카페, 갓볶은 커피와 음료","화장실 남녀구분 : 구분, 카페 : 있음, 리뷰여부 : 있음",경기
109,놀숲 김포운양점,만화방,10073.0,경기도 김포시 김포한강11로 288-27 4층,37.65478116,126.6833598,"일상에 즐거운 경험을 더하는 문화공간 카툰앤북카페, 편안한 좌석에서 맛있는 음식과 함께 책도 볼 수 있는 멀티 엔터테인먼트","주차 : 가능, 화장실 남녀구분 : 구분, 카페 : 있음, 리뷰여부 : 있음",경기
110,즐거운다락방,북카페,10071.0,경기도 김포시 김포한강9로76번길 21 애플상가 3F 즐거운다락방,37.64423291,126.6268159,"친구, 연인, 가족과 함께 좋은 추억 만들 수 있는 안락한 공간","주차 : 가능, 화장실 남녀구분 : 구분, 카페 : 있음, 리뷰여부 : 있음",경기
111,놀숲 김포구래점,만화방,10071.0,경기도 김포시 김포한강9로76번길 47 5층,37.64483461,126.6271305,"일상에 즐거운 경험을 더하는 문화공간 카툰앤북카페, 편안한 좌석에서 맛있는 음식과 함께 책도 볼 수 있는 멀티 엔터테인먼트","주차 : 가능, 화장실 남녀구분 : 구분, 카페 : 있음, 리뷰여부 : 있음",경기
112,열린문고,일반서점,10097.0,경기도 김포시 사우중로 79 사우테마프라자2,37.62186415,126.7205656,"다양한 국내외도서 취급, 자습서 문제집 초등교과서 학습서적 소설","카페 : 있음, 리뷰여부 : 있음",경기
113,쉴만한물가 북카페,북카페,10106.0,경기도 김포시 중봉1로 85-9,37.6270478,126.7055158,독서활동장소,카페 : 있음,경기
114,놀숲 다산신도시점,만화방,12285.0,경기도 남양주시 다산중앙로146번길 22 6층,37.62581631,127.1548174,"일상에 즐거운 경험을 더하는 문화공간 카툰앤북카페, 편안한 좌석에서 맛있는 음식과 함께 책도 볼 수 있는 멀티 엔터테인먼트","카페 : 있음, 리뷰여부 : 있음",경기
115,놀숲 오남점,만화방,12036.0,경기도 남양주시 오남읍 진건오남로 804 B1,37.69840458,127.2028825,"일상에 즐거운 경험을 더하는 문화공간 카툰앤북카페, 편안한 좌석에서 맛있는 음식과 함께 책도 볼 수 있는 멀티 엔터테인먼트","화장실 남녀구분 : 구분, 카페 : 있음, 리뷰여부 : 있음",경기
116,해밀서점 책읽는커피,일반서점,12056.0,경기도 남양주시 진접읍 해밀예당1로 79-1 102호,37.71593137,127.1886113,커피와 음료가 함께하는 동네서점. 참고서 문제집 소설 등 다양한 장르 도서,"화장실 남녀구분 : 구분, 카페 : 있음, 리뷰여부 : 있음",경기
117,신마석 신도숲속북카페,북카페,12035.0,경기도 남양주시 화도읍 비룡로 321 신마석신도브래뉴,37.67955822,127.2999083,독서활동장소,"카페 : 있음, 리뷰여부 : 있음",경기
118,놀숲 동두천지행점,만화방,11350.0,경기도 동두천시 지행로 52 3층,37.89207937,127.0530101,"일상에 즐거운 경험을 더하는 문화공간 카툰앤북카페, 편안한 좌석에서 맛있는 음식과 함께 책도 볼 수 있는 멀티 엔터테인먼트","화장실 남녀구분 : 구분, 카페 : 있음, 리뷰여부 : 있음",경기
119,5km북스토어,일반서점,14709.0,경기도 부천시 경인로 211-1,37.48351988,126.77907,평일 카페 이용객 책구매 가능,"카페 : 있음, 리뷰여부 : 있음",경기
120,화목한책빛소리북카페,북카페,14679.0,경기도 부천시 경인로536번길 57,37.48441984,126.8169423,독서활동 장소,"카페 : 있음, 리뷰여부 : 있음",경기
121,더샘,북카페,14478.0,경기도 부천시 까치로6번길 22 1층,37.50686969,126.809486,독서활동 장소,"카페 : 있음, 리뷰여부 : 있음",경기
122,놀숲 부천점,만화방,14637.0,경기도 부천시 부천로9번길 24,37.4855236,126.7817378,"일상에 즐거운 경험을 더하는 문화공간 카툰앤북카페, 편안한 좌석에서 맛있는 음식과 함께 책도 볼 수 있는 멀티 엔터테인먼트","화장실 남녀구분 : 구분, 카페 : 있음, 리뷰여부 : 있음",경기
123,우리동네북카페,북카페,14639.0,경기도 부천시 부흥로424번길 25,37.48741278,126.7870856,독서활동장소,"카페 : 있음, 리뷰여부 : 있음",경기
124,즐거운다락방부천시청점,만화방,14549.0,경기도 부천시 석천로177번길 24,37.50358204,126.7616222,만화카페,"화장실 남녀구분 : 구분, 카페 : 있음, 리뷰여부 : 있음",경기
125,놀숲 부천중동점,만화방,14546.0,경기도 부천시 석천로177번길 29,37.50325939,126.7613828,"일상에 즐거운 경험을 더하는 문화공간 카툰앤북카페, 편안한 좌석에서 맛있는 음식과 함께 책도 볼 수 있는 멀티 엔터테인먼트","주차 : 가능, 화장실 남녀구분 : 구분, 카페 : 있음, 리뷰여부 : 있음",경기
126,카페동네 여월동점,카페,14462.0,경기도 부천시 성곡로 68-5,37.51961063,126.7975241,모던형의 카페로 다양한 쇼파와 서적을 갖추어 젊은층의 휴식과 학습의 공간,"카페 : 있음, 리뷰여부 : 있음",경기
127,비북스,일반서점,13504.0,경기도 성남시 분당구 매화로48번길 12-2,37.41166348,127.1349834,"""독립서점""된 테마형 서가를 운영. 큐레이션 책방","카페 : 있음, 리뷰여부 : 있음",경기
128,영풍문고 분당 서현점,일반서점,13591.0,경기도 성남시 분당구 분당로 55 분당 퍼스트타워 지하 1층,37.38302718,127.1214832,다양한 국내외도서 취급,"주차 : 가능, 화장실 남녀구분 : 구분, 카페 : 있음, 리뷰여부 : 있음",경기
129,놀숲 분당서현점,만화방,13591.0,경기도 성남시 분당구 분당로53번길 15 지하1층,37.38435596,127.1219813,"일상에 즐거운 경험을 더하는 문화공간 카툰앤북카페, 편안한 좌석에서 맛있는 음식과 함께 책도 볼 수 있는 멀티 엔터테인먼트","화장실 남녀구분 : 구분, 카페 : 있음, 리뷰여부 : 있음",경기
130,스마트워크서점,일반서점,13636.0,경기도 성남시 분당구 성남대로43번길 10 하나EZ타워,37.34002835,127.1078146,-,"주차 : 가능, 카페 : 있음, 리뷰여부 : 있음",경기
131,카툰트리,북카페,13506.0,경기도 성남시 분당구 성남대로926번길 10 탑빌딩 B1,37.41257273,127.1298924,"3만권의 카툰, 웹툰, 소설 등 다양한 책 보유","주차 : 가능, 화장실 남녀구분 : 구분, 카페 : 있음, 리뷰여부 : 있음",경기
132,키즈베네북카페,북카페,13536.0,경기도 성남시 분당구 판교역로18번길 22 1층,37.38571188,127.1109953,해리포터를 출간한 미국 교육출파그룹 서적을 기반으로 원어민 영어선생님과 자연스럽게 대화하고 퀴즈도 푸는 프로그램,"주차 : 가능, 카페 : 있음, 리뷰여부 : 있음",경기
133,태평4동 북카페,북카페,13279.0,경기도 성남시 수정구 남문로 134,37.44770115,127.1414857,독서활동장소,"카페 : 있음, 리뷰여부 : 있음",경기
134,놀숲 성남동서울대점,만화방,13118.0,경기도 성남시 수정구 복정로 57 4층,37.45812542,127.1265649,"일상에 즐거운 경험을 더하는 문화공간 카툰앤북카페, 편안한 좌석에서 맛있는 음식과 함께 책도 볼 수 있는 멀티 엔터테인먼트","카페 : 있음, 리뷰여부 : 있음",경기
135,놀숲 위례신도시점,만화방,13640.0,경기도 성남시 수정구 위례광장로 322 4층,37.47177121,127.1426515,"일상에 즐거운 경험을 더하는 문화공간 카툰앤북카페, 편안한 좌석에서 맛있는 음식과 함께 책도 볼 수 있는 멀티 엔터테인먼트","화장실 남녀구분 : 구분, 카페 : 있음, 리뷰여부 : 있음",경기
136,놀숲 위례역점,만화방,13646.0,경기도 성남시 수정구 위례광장로 9-10 아롬타워 5층,37.46489781,127.1406516,"일상에 즐거운 경험을 더하는 문화공간 카툰앤북카페, 편안한 좌석에서 맛있는 음식과 함께 책도 볼 수 있는 멀티 엔터테인먼트","주차 : 가능, 화장실 남녀구분 : 구분, 카페 : 있음, 리뷰여부 : 있음",경기
137,성남시청하늘북카페,북카페,13437.0,경기도 성남시 중원구 성남대로 997,37.42017798,127.1262802,독서활동장소,"카페 : 있음, 리뷰여부 : 있음",경기
138,맛있는 음식책방 눈누난나,독립서점,16624.0,경기도 수원시 권선구 매송고색로711번길 26,37.25239721,126.981529,음식관련 책과 빵과 음식관련 소품을 판매하는 서점,카페 : 있음,경기
139,책발전소 광교,북카페,16514.0,경기도 수원시 영통구 광교호수공원로 80,37.27457631,127.0603987,책과 커피가 있는 복합문화공간,"카페 : 있음, 리뷰여부 : 있음",경기
140,놀숲 수원경기대점,만화방,16226.0,경기도 수원시 영통구 대학로 16 4층,37.29798736,127.0424656,"일상에 즐거운 경험을 더하는 문화공간 카툰앤북카페, 편안한 좌석에서 맛있는 음식과 함께 책도 볼 수 있는 멀티 엔터테인먼트","주차 : 가능, 화장실 남녀구분 : 구분, 카페 : 있음, 리뷰여부 : 있음",경기
141,매여울북카페,북카페,16524.0,경기도 수원시 영통구 매여울로10번길 14-6,37.27114383,127.0480308,-,카페 : 있음,경기
142,꽃길책길,독립서점,16538.0,경기도 수원시 영통구 매영로 10 삼성2차아파트 상가210호 꽃길책길,37.26944782,127.0441412,"""독립서점""출판물과 커피를 파는 ""독립서점""책방","카페 : 있음, 리뷰여부 : 있음",경기
143,정글북영통점,북카페,16702.0,경기도 수원시 영통구 매영로 424,37.24850731,127.0778887,독서활동장소,카페 : 있음,경기
144,드림북카페,북카페,16521.0,경기도 수원시 영통구 삼성로267번길 2,37.26596431,127.0630555,교회 안에 위치하는 북카페,카페 : 있음,경기
145,나무아래책방,독립서점,16509.0,경기도 수원시 영통구 에듀타운로 101 에듀하임오피스텔 108동 B103호,37.28882555,127.0456052,"영어 원서, 일반출판물 및 ""독립서점""출판물 판매, 영어독서모임 등","주차 : 가능, 카페 : 있음, 리뷰여부 : 있음",경기
146,서른책방,북카페,16690.0,경기도 수원시 영통구 영통로174번길 79,37.24380037,127.0597862,서른이 된 친구들이 만든 조그만 책방겸 카페,"주차 : 가능, 카페 : 있음, 리뷰여부 : 있음",경기
147,오손도손,독립서점,16313.0,경기도 수원시 장안구 수성로303번길 3 301호,37.29153458,127.0052279,100% 예약제 다양한 클래스와 모임 진행중,"카페 : 있음, 리뷰여부 : 있음",경기
148,놀숲 수원성대점,만화방,16417.0,경기도 수원시 장안구 화산로213번길 23,37.29862817,126.972526,"일상에 즐거운 경험을 더하는 문화공간 카툰앤북카페, 편안한 좌석에서 맛있는 음식과 함께 책도 볼 수 있는 멀티 엔터테인먼트","화장실 남녀구분 : 구분, 카페 : 있음, 리뷰여부 : 있음",경기
149,놀숲 수원역점,만화방,16455.0,경기도 수원시 팔달구 덕영대로 909 3층,37.26768512,127.0007196,"일상에 즐거운 경험을 더하는 문화공간 카툰앤북카페, 편안한 좌석에서 맛있는 음식과 함께 책도 볼 수 있는 멀티 엔터테인먼트","화장실 남녀구분 : 구분, 카페 : 있음, 리뷰여부 : 있음",경기
150,북카페 AK플라자 수원점,북카페,16622.0,경기도 수원시 팔달구 덕영대로 924,37.26731261,126.9997663,독서활동장소,"카페 : 있음, 리뷰여부 : 있음",경기
151,책먹는돼지,일반서점,16246.0,경기도 수원시 팔달구 세지로 300 1층,37.27794172,127.0239382,"30년간 수집한 돼지와 평생을 함께한 책, 따듯한 차를 나누는 곳","카페 : 있음, 리뷰여부 : 있음",경기
152,북카페 요기,만화방,16497.0,경기도 수원시 팔달구 아주로 37 302호,37.27822745,127.043549,독서활동장소,"주차 : 가능, 화장실 남녀구분 : 구분, 카페 : 있음, 리뷰여부 : 있음",경기
153,그린북카페,북카페,16422.0,경기도 수원시 팔달구 일월로22번길 23,37.28627886,126.9811458,독서활동장소,"카페 : 있음, 리뷰여부 : 있음",경기
154,브로콜리숲,독립서점,16251.0,경기도 수원시 팔달구 화서문로32번길 21-10 2층,37.28426491,127.0125595,"""독립서점""출판물을 취급하는 전문서점","카페 : 있음, 리뷰여부 : 있음",경기
155,놀숲 수원인계점,만화방,16490.0,경기도 수원시 팔달구 효원로265번길 40 용화빌딩,37.26379916,127.0316293,"일상에 즐거운 경험을 더하는 문화공간 카툰앤북카페, 편안한 좌석에서 맛있는 음식과 함께 책도 볼 수 있는 멀티 엔터테인먼트","화장실 남녀구분 : 구분, 카페 : 있음, 리뷰여부 : 있음",경기
156,놀숲 시흥장현가온신도시점,만화방,14995.0,경기도 시흥시 능곡로 188 효창프라자 2층,37.36839003,126.8103662,"일상에 즐거운 경험을 더하는 문화공간 카툰앤북카페, 편안한 좌석에서 맛있는 음식과 함께 책도 볼 수 있는 멀티 엔터테인먼트","주차 : 가능, 카페 : 있음, 리뷰여부 : 있음",경기
157,놀숲 시흥은행점,만화방,14917.0,경기도 시흥시 대은로 94 4층,37.4450598,126.7988378,"일상에 즐거운 경험을 더하는 문화공간 카툰앤북카페, 편안한 좌석에서 맛있는 음식과 함께 책도 볼 수 있는 멀티 엔터테인먼트","화장실 남녀구분 : 구분, 카페 : 있음, 리뷰여부 : 있음",경기
158,월곶동책한송이,북카페,14963.0,경기도 시흥시 월곶해안로 111 월곶동책한송이,37.38900737,126.7343408,"첵과 꽃이 있는 카페, 서점과 꽃집이 없던 동네에서 책과 꽃을 통해 작은 사치를 즐길 수 있는 문화를 생성","주차 : 가능, 화장실 남녀구분 : 구분, 카페 : 있음, 리뷰여부 : 있음",경기
159,북카페 베소라,북카페,15066.0,경기도 시흥시 중심상가4길 10 5층,37.34447703,126.7382515,독서활동장소,"화장실 남녀구분 : 구분, 카페 : 있음",경기
160,콩툰 안산중앙점,북카페,15360.0,경기도 안산시 단원구 예술대학로 17 중앙노블레스빌딩 4층 콩툰만화카페,37.31869128,126.8365182,"소방시설 관련해서 고객의 안전과 직결되는 중요한 부분에 있어 완벽하게 설계 완료, 다양한 종류의 만화책과 카페메뉴 구비","주차 : 가능, 화장실 남녀구분 : 구분, 카페 : 있음, 리뷰여부 : 있음",경기
161,토닥토닥괜찮아,일반서점,15445.0,경기도 안산시 단원구 초지로 118 대일타운,37.30940596,126.8153395,-,"카페 : 있음, 리뷰여부 : 있음",경기
162,콩툰 안산한대점,북카페,15494.0,경기도 안산시 상록구 광덕1로 375 강우빌딩 4층,37.30844603,126.8509523,"소방시설 관련해서 고객의 안전과 직결되는 중요한 부분에 있어 완벽하게 설계 완료, 다양한 종류의 만화책과 카페메뉴 구비","화장실 남녀구분 : 구분, 카페 : 있음, 리뷰여부 : 있음",경기
163,무늬책방,북카페,15589.0,경기도 안산시 상록구 네고지3길 12,37.29690379,126.8499077,"책과 꽃, 커피를 파는 공간","카페 : 있음, 리뷰여부 : 있음",경기
164,즐거운다락방,북카페,15539.0,경기도 안산시 상록구 샘골로 149 2층,37.29720525,126.8628606,"일반 카페처럼 너무 시끄럽고 복잡하지도 않고, 너무 조용하고 엄숙하지 않은 편안한 분위기","화장실 남녀구분 : 구분, 카페 : 있음, 리뷰여부 : 있음",경기
165,마을상점생활관,일반서점,15489.0,경기도 안산시 상록구 이동공원로 35 1층,37.31357428,126.8564338,복합문화공간,"주차 : 가능, 화장실 남녀구분 : 구분, 카페 : 있음, 헌책방 : 있음, 리뷰여부 : 있음",경기
166,다즐링북스,일반서점,17570.0,경기도 안성시 비룡6길 13-8 보보스 1층,37.01331963,127.2610769,"안성 동네 책방, 카페","카페 : 있음, 리뷰여부 : 있음",경기
167,놀숲 평촌학원가점,만화방,14103.0,경기도 안양시 동안구 평촌대로 140 5층,37.38475373,126.9600003,"일상에 즐거운 경험을 더하는 문화공간 카툰앤북카페, 편안한 좌석에서 맛있는 음식과 함께 책도 볼 수 있는 멀티 엔터테인먼트","주차 : 가능, 화장실 남녀구분 : 구분, 카페 : 있음, 리뷰여부 : 있음",경기
168,놀숲 안양범계역점,만화방,14072.0,경기도 안양시 동안구 평촌대로223번길 28 5층,37.39114062,126.9540207,"일상에 즐거운 경험을 더하는 문화공간 카툰앤북카페, 편안한 좌석에서 맛있는 음식과 함께 책도 볼 수 있는 멀티 엔터테인먼트","화장실 남녀구분 : 구분, 카페 : 있음, 리뷰여부 : 있음",경기
169,북앤빅뱅 안양점,만화방,13992.0,경기도 안양시 만안구 안양로292번길 3,37.39862457,126.922072,"안양1번가 위치 100평 만화카페, 도서대여점, 도서 7만권 소장","화장실 남녀구분 : 구분, 카페 : 있음, 리뷰여부 : 있음",경기
170,놀숲 안양1번가점,만화방,13992.0,경기도 안양시 만안구 안양로314번길 10,37.40014362,126.9209594,"일상에 즐거운 경험을 더하는 문화공간 카툰앤북카페, 편안한 좌석에서 맛있는 음식과 함께 책도 볼 수 있는 멀티 엔터테인먼트","화장실 남녀구분 : 구분, 카페 : 있음, 리뷰여부 : 있음",경기
171,YE북카페,북카페,13996.0,경기도 안양시 만안구 장내로140번길 11-9,37.3977984,126.9236282,-,"카페 : 있음, 리뷰여부 : 있음",경기
172,놀숲 양주옥정점,만화방,11473.0,경기도 양주시 회천남로 92 센타프라자 3층,37.81856917,127.0922097,"일상에 즐거운 경험을 더하는 문화공간 카툰앤북카페, 편안한 좌석에서 맛있는 음식과 함께 책도 볼 수 있는 멀티 엔터테인먼트","화장실 남녀구분 : 구분, 카페 : 있음, 리뷰여부 : 있음",경기
173,수필가와하늘빛목화밭,일반서점,12542.0,경기도 양평군 지평면 노곡길 80-7,37.44834328,127.6956508,"수필을 다루는 문학서점, 입장료 10000","카페 : 있음, 리뷰여부 : 있음",경기
174,book&more,일반서점,18140.0,경기도 오산시 경기대로 214 1층 북엔모어,37.14387646,127.073755,"책과 커피와 티와 술이 있는 공간, ""인문서적"" 소설책 책모임","주차 : 가능, 화장실 남녀구분 : 구분, 카페 : 있음, 리뷰여부 : 있음",경기
175,놀숲 오산세교점,만화방,18114.0,경기도 오산시 내삼미로79번길 31 2층,37.17070728,127.0645367,"일상에 즐거운 경험을 더하는 문화공간 카툰앤북카페, 편안한 좌석에서 맛있는 음식과 함께 책도 볼 수 있는 멀티 엔터테인먼트","화장실 남녀구분 : 구분, 카페 : 있음, 리뷰여부 : 있음",경기
176,책방 사이에서,일반서점,16979.0,경기도 용인시 기흥구 갈곡로8번길 4-13 102호,37.27096794,127.1301073,"서점, 인문학, 커피, 용인서점","주차 : 가능, 화장실 남녀구분 : 구분, 카페 : 있음, 리뷰여부 : 있음",경기
177,북스리브로 기흥점,일반서점,17065.0,경기도 용인시 기흥구 기흥역로 63,37.27533359,127.117182,다양한 국내외도서 취급,"카페 : 있음, 리뷰여부 : 있음",경기
178,노란별빛책방,일반서점,17079.0,경기도 용인시 기흥구 사은로126번길 52 신창미션힐상가 2층,37.25180833,127.120722,"토일월 공간대여, 수요일 오후 9시까지 영업. 큐레이션 책방","주차 : 가능, 화장실 남녀구분 : 구분, 카페 : 있음, 리뷰여부 : 있음",경기
179,놀숲 죽전점,만화방,16897.0,"경기도 용인시 기흥구 죽전로 10 장은메디칼프라자 8층 801,802호",37.32026428,127.1098621,"일상에 즐거운 경험을 더하는 문화공간 카툰앤북카페, 편안한 좌석에서 맛있는 음식과 함께 책도 볼 수 있는 멀티 엔터테인먼트","카페 : 있음, 리뷰여부 : 있음",경기
180,광교숲속마을공원북카페,북카페,16940.0,경기도 용인시 수지구 광교호수로386번길 6,37.29851368,127.0808449,독서활동장소,"카페 : 있음, 리뷰여부 : 있음",경기
181,우주소년,독립서점,16828.0,경기도 용인시 수지구 수풍로127번길 5,37.33495095,127.0930346,큐레이션 책방,"주차 : 가능, 카페 : 있음, 리뷰여부 : 있음",경기
182,북앤빅뱅 수지점,만화방,16837.0,"경기도 용인시 수지구 풍덕천로 127 지하층(풍덕천동,수지프라자)",37.32340226,127.0957577,"만화 3만권 이상 신간 다수, 고양이카페, 갓볶은 커피와 음료","화장실 남녀구분 : 구분, 카페 : 있음, 리뷰여부 : 있음",경기
183,놀숲 용인수지점,만화방,16837.0,경기도 용인시 수지구 풍덕천로139번길 8-1 봉산빌딩 4층,37.32455933,127.0964076,"일상에 즐거운 경험을 더하는 문화공간 카툰앤북카페, 편안한 좌석에서 맛있는 음식과 함께 책도 볼 수 있는 멀티 엔터테인먼트","화장실 남녀구분 : 구분, 카페 : 있음, 리뷰여부 : 있음",경기
184,놀숲 용인역북점,만화방,17056.0,경기도 용인시 처인구 명지로60번길 8-10 4층,37.2316045,127.1878847,"일상에 즐거운 경험을 더하는 문화공간 카툰앤북카페, 편안한 좌석에서 맛있는 음식과 함께 책도 볼 수 있는 멀티 엔터테인먼트","주차 : 가능, 화장실 남녀구분 : 구분, 카페 : 있음, 리뷰여부 : 있음",경기
185,농부와책방,독립서점,17155.0,경기도 용인시 처인구 양지면 한터로662번길 47,37.25713584,127.2772971,"용인시 인문학 서점, 동네책방","주차 : 가능, 카페 : 있음, 리뷰여부 : 있음",경기
186,모어댄북스,북카페,16015.0,경기도 의왕시 내손동 123,37.37070197,126.9908838,맥주를 같이 판매하는 서점,"카페 : 있음, 리뷰여부 : 있음",경기
187,북스토리,북카페,11813.0,경기도 의정부시 송현로52번길 15 1층,37.74456496,127.0927601,"구비 되어있는 책 자유롭게 독서 가능, 다양한 공간들이 갖춰져 있음","주차 : 가능, 화장실 남녀구분 : 구분, 카페 : 있음, 리뷰여부 : 있음",경기
188,인생서점 협동조합,일반서점,11788.0,"경기도 의정부시 용민로92번길 20 2층, 2층",37.73727831,127.0880432,주말 운영 유동적,"카페 : 있음, 리뷰여부 : 있음",경기
189,놀숲 의정부역직영점,만화방,11695.0,경기도 의정부시 시민로121번길 28 3층,37.73969695,127.0494717,"일상에 즐거운 경험을 더하는 문화공간 카툰앤북카페, 편안한 좌석에서 맛있는 음식과 함께 책도 볼 수 있는 멀티 엔터테인먼트","주차 : 가능, 화장실 남녀구분 : 구분, 카페 : 있음, 리뷰여부 : 있음",경기
190,콩툰 의정부점,북카페,11695.0,경기도 의정부시 시민로121번길 52 현대빌딩,37.74042765,127.0502256,"소방시설 관련해서 고객의 안전과 직결되는 중요한 부분에 있어 완벽하게 설계 완료, 다양한 종류의 만화책과 카페메뉴 구비","화장실 남녀구분 : 구분, 카페 : 있음, 리뷰여부 : 있음",경기
191,놀숲 의정부민락점,만화방,11813.0,경기도 의정부시 오목로205번길 55,37.74576004,127.0959346,"일상에 즐거운 경험을 더하는 문화공간 카툰앤북카페, 편안한 좌석에서 맛있는 음식과 함께 책도 볼 수 있는 멀티 엔터테인먼트","주차 : 가능, 화장실 남녀구분 : 구분, 카페 : 있음, 리뷰여부 : 있음",경기
192,만화카페 봄,북카페,11695.0,경기도 의정부시 행복로 13,37.74013427,127.0486214,"3만여권의 코믹, 웹툰, 순정 등 다양한 장르의 만화책과 소설 구비","화장실 남녀구분 : 구분, 카페 : 있음, 리뷰여부 : 있음",경기
193,놀숲 파주야당점,만화방,10908.0,경기도 파주시 경의로 1066 504호,37.71230302,126.7596204,"일상에 즐거운 경험을 더하는 문화공간 카툰앤북카페, 편안한 좌석에서 맛있는 음식과 함께 책도 볼 수 있는 멀티 엔터테인먼트","카페 : 있음, 리뷰여부 : 있음",경기
194,오래된서점,일반서점,10911.0,경기도 파주시 상지석길 5-1,37.73307944,126.7759407,"커피볶는동네책방, ""독립서점""출판물","주차 : 가능, 카페 : 있음, 리뷰여부 : 있음",경기
195,아르카북스 책방,독립서점,17969.0,경기도 평택시 현덕면 덕목5길 122-11,36.95641569,126.9702531,코로나19로 인한 예약제 실시 중. 그림서적 소설 인문 서적 등,"주차 : 가능, 화장실 남녀구분 : 구분, 카페 : 있음, 리뷰여부 : 있음",경기
196,놀숲 하남미사점,만화방,12909.0,경기도 하남시 미사강변대로 216 한강트윈2,37.56898383,127.1845204,"일상에 즐거운 경험을 더하는 문화공간 카툰앤북카페, 편안한 좌석에서 맛있는 음식과 함께 책도 볼 수 있는 멀티 엔터테인먼트","주차 : 가능, 화장실 남녀구분 : 구분, 카페 : 있음, 리뷰여부 : 있음",경기
197,냥이툰,북카페,12913.0,경기도 하남시 미사강변동로 127 805호,37.56618093,127.1910447,"고양이와 함께 노는 만화카페, 50평 지상 8층 쾌적한 시설과 아늑한 분위기","주차 : 가능, 화장실 남녀구분 : 구분, 카페 : 있음, 리뷰여부 : 있음",경기
198,미사강변 북카페,북카페,12907.0,경기도 하남시 미사강변한강로 10-2,37.57520105,127.1779322,스터디카페,"카페 : 있음, 리뷰여부 : 있음",경기
199,놀숲 하남신장점,만화방,12965.0,경기도 하남시 신장로 117-1 2층,37.53768743,127.2049157,"일상에 즐거운 경험을 더하는 문화공간 카툰앤북카페, 편안한 좌석에서 맛있는 음식과 함께 책도 볼 수 있는 멀티 엔터테인먼트","카페 : 있음, 리뷰여부 : 있음",경기
200,만화카페 툰,북카페,12968.0,경기도 하남시 신평로 49 일계빌딩 6층,37.53827002,127.204537,안그한 룸에서 가족끼리 연인끼리 편안하게 있을 수 있는 공간,"주차 : 가능, 화장실 남녀구분 : 구분, 카페 : 있음, 리뷰여부 : 있음",경기
201,초록책방,일반서점,18435.0,경기도 화성시 동탄공원로2길 20-42 101호,37.20544056,127.0614283,독서모임과 공간대여로 운영,"주차 : 가능, 카페 : 있음",경기
202,지음,북카페,18435.0,경기도 화성시 동탄공원로3길 10-14,37.2067394,127.0613595,직접 로스팅한 신선한 원두로 만든 커피,"주차 : 가능, 카페 : 있음, 리뷰여부 : 있음",경기
203,달팽이그림서적카페,일반서점,18435.0,경기도 화성시 동탄공원로3길 10-3 102호,37.20711459,127.0610249,아이부터 어른까지 볼 수 있는 그림서적을 공유하는 공간,"카페 : 있음, 리뷰여부 : 있음",경기
204,아크앤북 동탄호수점,일반서점,18497.0,경기도 화성시 동탄대로 181 레이크꼬모 B2F 아크앤북 동탄호수점,37.1714848,127.1053961,다양한 국내외도서 취급,카페 : 있음,경기
205,놀숲 동탄역점,만화방,18478.0,경기도 화성시 동탄대로 489 7층,37.19735939,127.0982632,"일상에 즐거운 경험을 더하는 문화공간 카툰앤북카페, 편안한 좌석에서 맛있는 음식과 함께 책도 볼 수 있는 멀티 엔터테인먼트","주차 : 가능, 화장실 남녀구분 : 구분, 카페 : 있음",경기
206,산 위에 동네,독립서점,18508.0,경기도 화성시 동탄장지천6길 7,37.15727783,127.1078955,"인문, 철학, 문학, 에세이 등의 서적을 주로 다루는 큐레이션 서점","카페 : 있음, 리뷰여부 : 있음",경기
207,놀숲 화성병점점,만화방,18404.0,경기도 화성시 효행로 1018 2층,37.21248125,127.0390674,"일상에 즐거운 경험을 더하는 문화공간 카툰앤북카페, 편안한 좌석에서 맛있는 음식과 함께 책도 볼 수 있는 멀티 엔터테인먼트","화장실 남녀구분 : 구분, 카페 : 있음, 리뷰여부 : 있음",경기
208,달빛책방&달빛북스,북카페,50937.0,경상남도 김해시 식만로348번길 42 달빛북스,36.29928183,128.9214264,"15클래스 독서모임을 운영하고, 책처방 상담과 퍼스널브랜딩 진행","주차 : 가능, 화장실 남녀구분 : 구분, 카페 : 있음, 리뷰여부 : 있음",경상
209,마중,북카페,51655.0,경상남도 창원시 진해구 충장로442번길 5,35.14918743,128.6972196,"에티오피아 현장방문 및 후원활동, 전시회, 에피오피아 커피 및 그림, 소품 전시 및 판매","주차 : 가능, 화장실 남녀구분 : 구분, 카페 : 있음, 리뷰여부 : 있음",경상
210,북카페통659,북카페,36623.0,경상북도 안동시 노하2길 19-5,36.57848535,128.6803413,"쾌적하고 넓은 공간, 게스트하우스와 함께 있는 북카페, 여행자들이 오기 좋은 카페","주차 : 가능, 화장실 남녀구분 : 구분, 카페 : 있음",경상
211,하비북카페,북카페,38301.0,경상북도 청도군 각북면 지슬길 34-17,35.71214165,128.5881786,"인공 계곡과 대형수영장, 넓은 노천카페 유럽식 조경으로 꾸며진 자연을 만끽","주차 : 가능, 화장실 남녀구분 : 구분, 카페 : 있음, 리뷰여부 : 있음",경상
212,북카페,북카페,36368.0,경상북도 청도군 운문면 운문사길 115-6,35.67395962,128.9576198,독서활동 장소,"주차 : 가능, 화장실 남녀구분 : 구분, 카페 : 있음",경상
213,북시티서점,일반서점,53294.0,경상남도 거제시 거제중앙로 1649 북시티 서점 1F 2F 3F,34.86871067,128.6373547,"소설, 에세이 뿐만 아니라 아동 서적, 전공 서적 등 다양한 도서가 구비","주차 : 가능, 화장실 남녀구분 : 구분, 카페 : 있음, 리뷰여부 : 있음",경상
214,"오늘,위로",북카페,53308.0,경상남도 거제시 아주1로 105-16 신우빌 1층,34.8677534,128.6804382,"""독립서점""출판물,중고책과 음료판매, 중고책 기부도 받음,중고책 판매금액은 유기동물을 위한 후원","카페 : 있음, 리뷰여부 : 있음",경상
215,책방익힘,일반서점,53202.0,경상남도 거제시 장목면 절골길 12 나동 1,34.96096277,128.7102723,"거제도 바다가 보이는 책방, 독서모임운영, 음료도 판매","주차 : 가능, 화장실 남녀구분 : 구분, 카페 : 있음, 리뷰여부 : 있음",경상
216,숨북숨북,독립서점,51017.0,경상남도 김해시 율하3로8번길 38,35.16821319,128.8135544,"책,커피,음악 공간 대여","카페 : 있음, 리뷰여부 : 있음",경상
217,청학서점,일반서점,50426.0,경상남도 밀양시 약산로 44 1층 청학서점,35.49257748,128.7495659,-,"카페 : 있음, 리뷰여부 : 있음",경상
218,까치밥,일반서점,52219.0,경상남도 산청군 산청읍 덕계로 13-14,35.41582904,127.8773875,"경남 산청군 산청읍에 있는 작은 책방. 책, 커피, 음료, 맥주 판매",카페 : 있음,경상
219,안녕 고래야,일반서점,50613.0,경상남도 양산시 물금읍 백호2길 7-7,35.31995455,128.9991969,"시, 소설, 에세이 인문도서들을 그림서적과 함께 들여다보며 커피한 잔을 나눌 수 있는 따뜻한 동네책방","주차 : 가능, 화장실 남녀구분 : 구분, 카페 : 있음, 리뷰여부 : 있음",경상
220,인디무브,독립서점,50652.0,경상남도 양산시 물금읍 야리3길 49 원타운상가 402호,35.31493941,129.0113278,"북살롱, 와인, 등이 있는 동네책방","주차 : 가능, 화장실 남녀구분 : 구분, 카페 : 있음, 리뷰여부 : 있음",경상
221,영풍문고 진주점,일반서점,52818.0,"경상남도 진주시 동부로169번길 12 지하 1층 102호(충무공동, 윙스타워)",35.1648826,128.1272795,국내외 다양한 도서,"주차 : 가능, 카페 : 있음, 리뷰여부 : 있음",경상
222,보틀북스,독립서점,52838.0,경상남도 진주시 문산읍 월아산로 1047-14 LH행복주택 주민공동시설 내 상가,35.16538523,128.1628537,책과 따뜻한 커피를 즐길 수 있는 문학살롱,"주차 : 가능, 화장실 남녀구분 : 구분, 카페 : 있음, 리뷰여부 : 있음",경상
223,백석이 지나간 작은책방,일반서점,51273.0,경상남도 창원시 마산합포구 천하장사로 109,35.21164757,128.574587,시집과 소설을 주로 판매하는 북카페,"카페 : 있음, 리뷰여부 : 있음",경상
224,청보리책방,독립서점,51428.0,경상남도 창원시 의창구 외동반림로254번길 8-1,35.23896537,128.6805698,"책,음악,차의 어울림","카페 : 있음, 리뷰여부 : 있음",경상
225,경주산책,일반서점,38117.0,경상북도 경주시 보문로 338 1F,35.85031976,129.2771892,"""예술 서적과 기획전시 등 다양한 콘텐츠,마음, 철학, 생각, 걷기, 식사 등 다양한 테마와 큐레이션 도서를 통해 우리 일상에서 누릴 수 있는 여러 가지 형태의 지적 휴식을 제안하는 리안호텔의 서점","주차 : 가능, 화장실 남녀구분 : 구분, 카페 : 있음, 리뷰여부 : 있음",경상
226,북미,일반서점,38140.0,경상북도 경주시 북성로 103-1 2층,35.8473633,129.2131661,"영화 관련 전문 서점, 경주 읍성 뷰를 보며 모카포트 커피 및 음료를 즐길 수 있음","카페 : 있음, 리뷰여부 : 있음",경상
227,책만보,독립서점,38082.0,경상북도 경주시 용담로 118 주공2차 상가103호,35.86523895,129.2091138,"""독립서점""출판물,소설,북카페,독서모임을 즐길 수 있는 서점","카페 : 있음, 리뷰여부 : 있음",경상
228,오늘은책방,일반서점,38097.0,경상북도 경주시 소금강로8번길 11-2 1층 오늘은책방,35.85930639,129.2217923,"책, 사람, 자연과 함께 하루를 풍성히 하고 싶은 공간","주차 : 가능, 화장실 남녀구분 : 구분, 카페 : 있음, 리뷰여부 : 있음",경상
229,책봄,독립서점,39302.0,경상북도 구미시 금오산로22길 24-1,36.12621728,128.33001,독림출판물이 있는 동네 작은책방,"카페 : 있음, 리뷰여부 : 있음",경상
230,삼일문고,일반서점,39229.0,경상북도 구미시 금오시장로 6,36.12543878,128.3406394,"다양한 종류의 서적, 서점 안, 바블리오라는 북카페 존재","주차 : 가능, 화장실 남녀구분 : 구분, 카페 : 있음, 리뷰여부 : 있음",경상
231,모메꽃 책방,일반서점,36611.0,경상북도 안동시 와룡면 이하오산로 332-20,36.61553475,128.7320848,"책과 함께 커피, 음료, 천연염색 소품을 파는 작은 책방","카페 : 있음, 헌책방 : 있음, 리뷰여부 : 있음",경상
232,오마이북,북카페,38334.0,경상북도 청도군 화양읍 동천3길 67,35.64676501,128.7117335,"매주 다양한 신간, 도서구입시 음료 천원 할인","주차 : 가능, 화장실 남녀구분 : 구분, 카페 : 있음, 리뷰여부 : 있음",경상
233,통툰포항상도점,만화방,37830.0,경상북도 포항시 남구 상공로 38-1 통툰만화카페,36.01195631,129.3564691,만화카페,카페 : 있음,경상
234,달팽이책방,일반서점,37664.0,경상북도 포항시 남구 효자동길10번길 32,36.0090452,129.3331432,"동네책방 & 홍차전문점. 엄선한 인문학 도서와 소규모 ""독립서점""출판물을 판매하며, 젊은 아티스트의 작품을 소개","카페 : 있음, 리뷰여부 : 있음",경상
235,디어북스,일반서점,37728.0,"경상북도 포항시 북구 삼호로8번길 12 1층, 디어북스",36.04155261,129.368384,커피와 책을 함께 즐길 수 있는 조용하고 여유로운 공간,"카페 : 있음, 리뷰여부 : 있음",경상
236,리본책방,일반서점,37587.0,경상북도 포항시 북구 장량로145번길 39-1 리본책방,36.08534671,129.3958525,-,"주차 : 가능, 화장실 남녀구분 : 구분, 카페 : 있음, 헌책방 : 있음, 리뷰여부 : 있음",경상
237,정글북,북카페,61487.0,광주 동구 백서로125번길 8-1,35.14264105,126.9191583,"독서 활동 장소, 공부하기 좋은 분위기",카페 : 있음,광주
238,바오로딸서원,종교서점,61995.0,광주 서구 상무대로 980 (가톨릭평생교육원내),35.15037073,126.8683417,"가톨릭 종교 서적, 용품점",카페 : 있음,광주
239,풀덤 수완점,북카페,62306.0,광주광역시 광산구 수완로49번길 26 만화카페 풀덤,35.18974423,126.8272717,"순정, 코믹스, 웹투느 일반서적, 에세이, 시집, 아동도서, 보드게임 구비","화장실 남녀구분 : 구분, 카페 : 있음",광주
240,동네책방숨,북스테이,62248.0,광주광역시 광산구 수완로74번길 11-8,35.19209674,126.8301652,1박2일간 책을 읽으며 머무를 수 있는 장소,"주차 : 가능, 화장실 남녀구분 : 구분, 카페 : 있음",광주
241,북카페숨,북카페,62248.0,광주광역시 광산구 수완로74번길 11-8,35.19209674,126.8301652,독서활동장소,카페 : 있음,광주
242,북카페 이숲,북카페,62380.0,광주광역시 광산구 신흥동안길 9,35.14146196,126.8266711,독서활동장소,카페 : 있음,광주
243,북카페공감,북카페,62251.0,광주광역시 광산구 왕버들로 291,35.19558224,126.8407134,독서활동장소,"카페 : 있음, 리뷰여부 : 있음",광주
244,망고홈데코,북카페,62369.0,광주광역시 광산구 우산로 74,35.1567116,126.808432,"셀프인테리어족을 위한 최고의 선택, 다양한 인테리어 서적과 잡지를 읽을 수 있는 북카페","주차 : 가능, 화장실 남녀구분 : 구분, 카페 : 있음",광주
245,떼굴떼굴,만화방,62247.0,광주광역시 광산구 임방울대로 356,35.19166467,126.8244069,만화카페,카페 : 있음,광주
246,T&T,카페,62306.0,광주광역시 광산구 임방울대로332번길 9-12,35.19002456,126.8251804,"각종 모임, 그룹스터디, 독서토론, 회의 다양한 룸 시설 완비",카페 : 있음,광주
247,놀숲 광주수완점,만화방,62306.0,광주광역시 광산구 임방울대로332번길 9-4,35.19002268,126.8246491,"웹툰 등 만화책과 아이들 만화, 간단한 일반도서, 보드게임 등등 여러가지 놀이를 하며 시간을 보낼 수 있는 공간","화장실 남녀구분 : 구분, 카페 : 있음",광주
248,놀숲 광주첨단점,만화방,62279.0,광주광역시 광산구 임방울대로826번길 47 시너지빌딩 3층,35.21530648,126.8492065,"커피만 즐길 수 있던 카페와는 다른 만화책도 보고, 맛있는 간식이 있는 문화카페","화장실 남녀구분 : 구분, 카페 : 있음",광주
249,수완동행정복지센터북카페,북카페,62247.0,광주광역시 광산구 장덕로 158,35.1970732,126.8257304,독서활동장소,카페 : 있음,광주
250,커피랑도서관 광주첨단점,스터디카페,62276.0,광주광역시 광산구 첨단중앙로106번길 11 3층,35.21500267,126.8436556,친절한 직원이 섬세하게 관리하는 도서관,"화장실 남녀구분 : 구분, 카페 : 있음",광주
251,커피라온,카페,62420.0,광주광역시 광산구 평동로 785,35.12512173,126.7603496,독서활동장소,카페 : 있음,광주
252,달뫼마을문화관북카페,북카페,61617.0,광주광역시 남구 금화로441번길 6,35.14591091,126.8910765,독서활동장소,카페 : 있음,광주
253,지음,카페,61694.0,광주광역시 남구 봉선1로37번길 1 102호,35.12812126,126.9090629,아메리카노 원드로 국가대표선발전에서 1위한 roasther가 로스팅해 매달 갓 볶아온 제품을 사용,"화장실 남녀구분 : 구분, 카페 : 있음",광주
254,놀숲 광주점,만화방,61684.0,광주광역시 남구 봉선2로 36,35.12541135,126.9103755,"커피만 즐길 수 있던 카페와는 다른 만화책도 보고, 맛있는 간식이 있는 문화카페","주차 : 가능, 화장실 남녀구분 : 구분, 카페 : 있음",광주
255,혼BOOK,일반서점,61635.0,광주광역시 남구 서오층석탑1길 2 구KBC방송국 현 KBC빌딩 뒤편뒤편,35.14558522,126.9072255,"마음의 평화, 육체의 건강, 경제적 자유를 돕는 책들",카페 : 있음,광주
256,예향작은도서관,북카페,61498.0,광주광역시 동구 남문로 638-3,35.12799817,126.9308971,독서활동장소,카페 : 있음,광주
257,지음책방,독립서점,61432.0,광주광역시 동구 동명로67번길 17,35.15234598,126.9267244,"책과 밥,차,술을 즐길 수 있는 앤틱한 분위기의독립서점","화장실 남녀구분 : 구분, 카페 : 있음",광주
258,정글북,북카페,61487.0,광주광역시 동구 백서로125번길 8-1,35.14258562,126.9190331,독서활동장소,"화장실 남녀구분 : 구분, 카페 : 있음",광주
259,북앤빅뱅충장로점,만화방,61483.0,광주광역시 동구 충장로 72,35.148231,126.9152047,"만화 4만권이상보유, 매월 신간 수백만원 구매하는 구색최고 만화카페",카페 : 있음,광주
260,오월의숲,북카페,61440.0,광주광역시 동구 필문대로205번길 10-1,35.15202094,126.9321276,-,"카페 : 있음, 리뷰여부 : 있음",광주
261,장애인북카페들,북카페,61166.0,광주광역시 북구 군왕로207번길 16,35.17982304,126.9351035,독서활동장소,"카페 : 있음, 리뷰여부 : 있음",광주
262,MILLE,북카페,61104.0,광주광역시 북구 비엔날레로 111,35.18252689,126.8902187,독서활동장소,카페 : 있음,광주
263,카페 나니행,북카페,61224.0,광주광역시 북구 서암대로 166-2,35.16899325,126.9021553,독서활동장소,카페 : 있음,광주
264,세이지,북카페,61034.0,광주광역시 북구 일곡택지로99번길 33-1,35.2100097,126.89093,"맛있는 커피와 함께 천여권의 책과 보드게임, LP, CD등의 음악을 감상할 수 있는 카페","화장실 남녀구분 : 구분, 카페 : 있음",광주
265,카페노블,북카페,61216.0,광주광역시 북구 자미로66번길 7 2층,35.17170006,126.9052481,독서활동장소,카페 : 있음,광주
266,콩툰 광주 첨단2지구점,북카페,61087.0,광주광역시 북구 첨단연신로91번길 30,35.20649676,126.8612297,-,카페 : 있음,광주
267,풀덤 전대점,북카페,61189.0,광주광역시 북구 호동로43번길 60,35.17611373,126.9135376,만화카페,카페 : 있음,광주
268,카페자우,카페,61949.0,광주광역시 서구 상무중앙로 58 광주 타임스퀘어 3F,35.15210498,126.848919,최고급의 스페셜티 생두를 전문 로스터가 직접 로스팅하여 맛과 향이 풍부한 때에 추출하여 제공,"주차 : 가능, 화장실 남녀구분 : 구분, 카페 : 있음",광주
269,Darak,북카페,61966.0,광주광역시 서구 상일로24번길 15,35.15766271,126.8648184,독서활동장소,카페 : 있음,광주
270,커피랑도서관 광주금호점,스터디카페,62014.0,광주광역시 서구 풍금로 171 6층 (평화빌딩),35.1310568,126.8592401,-,카페 : 있음,광주
271,올리브북카페,북카페,62070.0,광주광역시 서구 풍서좌로 211,35.12626988,126.8461661,독서활동장소,카페 : 있음,광주
272,풀덤 풍암점,북카페,62058.0,광주광역시 서구 풍암2로 16-1 3층,35.12612848,126.8799473,만화카페,카페 : 있음,광주
273,놀숲 광주금호점,만화방,62011.0,광주광역시 서구 화개중앙로 97 3층,35.12726133,126.8523669,"커피만 즐길 수 있던 카페와는 다른 만화책도 보고, 맛있는 간식이 있는 문화카페","주차 : 가능, 화장실 남녀구분 : 구분, 카페 : 있음",광주
274,삼복서점,일반서점,61987.0,광주광역시 서구 화운로 121,35.14999562,126.8782211,"카페,디저트를 책과 함께 할 수 있는 편안한 공간","주차 : 가능, 카페 : 있음",광주
275,이상현실,독립서점,61980.0,광주광역시 서구 화운로 136 1층,35.15125435,126.8775075,"신간, 독립출판물, 헌책 비치, 책 구매 혹은 읽을 수 있음","화장실 남녀구분 : 구분, 카페 : 있음",광주
276,사이시옷,독립서점,62047.0,광주광역시 서구 화정로260번길 9,35.14724735,126.8856687,"1층: 서점+카페 / 2층: 소모임, 대관","화장실 남녀구분 : 구분, 카페 : 있음",광주
277,더플레이그라운드불&베이커리,카페,41074.0,대구 동구 신서로 77,35.8750567,128.7237227,매일 아침 갓 구운 빵과 직접 로스팅하는 원두로 커피를 제조,"주차 : 가능, 카페 : 있음",대구
278,사이책방,일반서점,41001.0,대구 동구 신용동 513-1,35.98300182,128.6488337,"작은 북 아지트, 자연과 함께 힐링 가능",카페 : 있음,대구
279,마루루,북카페,41006.0,대구 동구 용천로49길 3,35.97336028,128.6761533,"엄선된 재료와 청결함, 조용한 분위기","주차 : 가능, 화장실 남녀구분 : 구분, 카페 : 있음",대구
280,앞산밑 북카페,북카페,42488.0,대구광역시 남구 대명로 182,35.83882217,128.5777693,-,카페 : 있음,대구
281,행복한북카페,북카페,42433.0,대구광역시 남구 명덕로68길 22-1,35.85383816,128.6059988,독서활동장소,카페 : 있음,대구
282,호야북카페,북카페,42430.0,대구광역시 남구 중앙대로 144,35.84596223,128.5907966,독서활동장소,카페 : 있음,대구
283,hago,북카페,42452.0,대구광역시 남구 큰골5길 10,35.8368777,128.5820888,"국내, 국외의 좋은 그림책을 소개, 판매, 그림책 관련 워크샵, 핸드메이드 원데이클래스 진행",카페 : 있음,대구
284,아마존북카페,만화복합,42608.0,대구광역시 달서구 계대동문로 1 계명빌딩 5층,35.85585493,128.4924977,클래식 음악을 들으며 편안한 시간을 보낼 수 있는 공간,"주차 : 가능, 화장실 남녀구분 : 구분, 카페 : 있음",대구
285,콩툰 두류점,북카페,42645.0,대구광역시 달서구 달구벌대로 1704,35.85545787,128.5521394,"소방시설 관련해서 고객의 안전과 직결되는 중요한 부분에 있어 완벽하게 설계 완료, 다양한 종류의 만화책과 카페메뉴 구비","주차 : 가능, 화장실 남녀구분 : 구분, 카페 : 있음",대구
286,잇츠만화카페 죽전점,북카페,42633.0,대구광역시 달서구 달구벌대로309길 8,35.85040744,128.5352043,만화카페,"화장실 남녀구분 : 구분, 카페 : 있음",대구
287,디지털경제북,카페,42699.0,대구광역시 달서구 문화회관길 165,35.8440746,128.524741,책많고 조용히 커피마시기 좋은 곳,카페 : 있음,대구
288,하늘북,카페,42614.0,대구광역시 달서구 서당로7길 28,35.85510807,128.4939585,-,카페 : 있음,대구
289,선택의자유,일반서점,42824.0,대구광역시 달서구 송현로10길 6 1층,35.8227667,128.5475205,"작은책방/카페, 맞춤형 영어강의와 독서모임도 진행",카페 : 있음,대구
290,문작가의 카페,일반서점,42628.0,대구광역시 달서구 용산로 225 3층 문작가의 카페,35.85780398,128.5303195,"작가가 있는 책방,토론과 글쓰기 등 동네 북카페",카페 : 있음,대구
291,콩툰 상인점,북카페,42786.0,대구광역시 달서구 월곡로 253 403호,35.8170218,128.5390434,"소방시설 관련해서 고객의 안전과 직결되는 중요한 부분에 있어 완벽하게 설계 완료, 다양한 종류의 만화책과 카페메뉴 구비","화장실 남녀구분 : 구분, 카페 : 있음",대구
292,파이데이아북스,독립서점,42781.0,대구광역시 달서구 월서로3길 15 231동 103-1호,35.82025296,128.5344542,"동네서점 & 북카페 복합형 공간, 독서토론과 공간대여도 함께 진행중","주차 : 가능, 화장실 남녀구분 : 구분, 카페 : 있음",대구
293,팬더하우스,북카페,42756.0,대구광역시 달서구 조암남로 42,35.82175741,128.528013,-,카페 : 있음,대구
294,공감앤카페,복합공간,42758.0,대구광역시 달서구 조암로 25 그루타워 601호,35.82483481,128.5274064,"체험강연 복합 문화 공간으로써 대구핸드메이드 문화협동조합에서 운영하는 카페, 이색카페로 커피와 음료를 즐길 수 있고, 도자기 페인팅, 캘리그라피, 바느질 수업에 참여가능","주차 : 가능, 화장실 남녀구분 : 구분, 카페 : 있음",대구
295,콩툰 월배점,북카페,42760.0,대구광역시 달서구 진천로 93 503호,35.81666585,128.5224543,"소방시설 관련해서 고객의 안전과 직결되는 중요한 부분에 있어 완벽하게 설계 완료, 다양한 종류의 만화책과 카페메뉴 구비",카페 : 있음,대구
296,페이지카페,북카페,42910.0,대구광역시 달성군 다사읍 왕선로1길 9-6,35.86267917,128.4639244,-,카페 : 있음,대구
297,심심푸리 현풍점,북카페,43017.0,대구광역시 달성군 현풍읍 테크노상업로 20 601호,35.69097306,128.4535885,만화카페,카페 : 있음,대구
298,다락방 명곡점,만화복합,42960.0,대구광역시 달성군 화원읍 명곡로 12-7,35.79835487,128.4957328,만화카페,카페 : 있음,대구
299,심플책방,독립서점,41244.0,대구광역시 동구 동부로34길 4 지하 1층,35.87710297,128.630564,"인문,에세이 장르책과 칵테일, 음악, 고양이가 공존하는 책방",카페 : 있음,대구
300,툰툰카페W,북카페,41092.0,대구광역시 동구 동호로 164,35.86937357,128.7327212,"2만여권 책보유, 추억의 게임기 및 보드게임 비취",카페 : 있음,대구
301,한점푸르른땅,북카페,41083.0,대구광역시 동구 반야월로 332,35.87170125,128.7248457,독서활동장소,카페 : 있음,대구
302,한국장학재단 북카페,북카페,41200.0,대구광역시 동구 신암로 125,35.88117121,128.6129509,시민 누구나 이용가능한 도서관,카페 : 있음,대구
303,일인칭,북카페,41108.0,대구광역시 동구 율하서로1길 17 1층,35.86744301,128.6920864,동화작가 정옥이 운영하는 북카페일인칭은 커피를 비롯한 수제 음료들과 다양한 책들이 구비 되어 있는 문화공간,"주차 : 가능, 화장실 남녀구분 : 구분, 카페 : 있음",대구
304,파이데이아북까페,북카페,41001.0,대구광역시 동구 파계로138길 15,35.99097002,128.6386431,독서활동장소,카페 : 있음,대구
305,콩툰 봉무점,북카페,41026.0,대구광역시 동구 팔공로51길 31,35.9228547,128.6377184,"소방시설 관련해서 고객의 안전과 직결되는 중요한 부분에 있어 완벽하게 설계 완료, 다양한 종류의 만화책과 카페메뉴 구비",카페 : 있음,대구
306,어바웃타임,북카페,41569.0,대구광역시 북구 경대로5길 9-7,35.88451982,128.6127914,"스터디룸, 회의룸 예약 받음, 갤러리 작품전, 영화, 경기관람 가능","화장실 남녀구분 : 구분, 카페 : 있음",대구
307,꿈꾸는사람들,북카페,41432.0,대구광역시 북구 구암로41길 3-9,35.93205561,128.5627727,-,카페 : 있음,대구
308,배움이있는북카페휴노 마을가게1호점,북카페,41430.0,대구광역시 북구 대천로18길 20,35.93532676,128.5573277,독서활동장소,카페 : 있음,대구
309,모두의카페 다다름,카페,41544.0,대구광역시 북구 대학로 63 4층,35.89179993,128.6075404,독서활동장소,"화장실 남녀구분 : 구분, 카페 : 있음",대구
310,잼잼박스,북카페,41544.0,대구광역시 북구 대학로23길 17-1,35.89416696,128.6100511,어마어마한 인기 웹툰과 스테디셀러 만화들부터 베스트 세러 도서 등 무궁무진한 재미를 선사,카페 : 있음,대구
311,북카페에스프레소말리,북카페,41519.0,대구광역시 북구 동북로 131 양우내안애아파트,35.90169021,128.6078901,독서활동장소,카페 : 있음,대구
312,카페자우,카페,41423.0,대구광역시 북구 동암로 104 동천빌딩 3F,35.94400795,128.5623881,최고급의 스페셜티 생두를 전문 로스터가 직접 로스팅하여 맛과 향이 풍부한 때에 추출하여 제공,"주차 : 가능, 화장실 남녀구분 : 구분, 카페 : 있음",대구
313,Rhema Cafe & 기독서점,종교서점,41576.0,대구광역시 북구 신암로 57,35.87767783,128.606963,카페와 운영하는 기독교서점,카페 : 있음,대구
314,시청별관 북카페,카페,41542.0,대구광역시 북구 연암로 40,35.89267855,128.6014574,독서활동장소,카페 : 있음,대구
315,첫 번째 소설,카페,41465.0,대구광역시 북구 태암로18길 19-1,35.92532156,128.5552976,독서활동장소,카페 : 있음,대구
316,치우친취향,독립서점,41416.0,대구광역시 북구 학정동로 66 1층,35.94959827,128.5678986,"치우친 취향으로 가득 작은 책방, 독립출판물,중고서적, 마실 거리 있음",카페 : 있음,대구
317,서재를 탐하다,북카페,41732.0,대구광역시 서구 고성로 132-2,35.88145214,128.5800859,"주인장 없는 독립공간, 서재의 모든 책 열람 및 구매 가능, 핸드드립 블랜딩 서탐커피&티 제공","주차 : 가능, 카페 : 있음",대구
318,원대로북카페협동조합,카페,41729.0,대구광역시 서구 고성로 99-10,35.88325551,128.5770472,원대동 주민들이 직접운영하는 협동조합이며 좋은 재료로 부담없는 가격으로 음료를 재공,카페 : 있음,대구
319,노란토끼,북카페,42010.0,대구광역시 수성구 국채보상로164길 17 2층,35.86652928,128.6210241,그림책을 좋아하는 사람들과 만나고 싶은 공간,카페 : 있음,대구
320,물레책방,일반서점,42087.0,대구광역시 수성구 달구벌대로492길 15,35.85738613,128.632222,중고서점,"카페 : 있음, 헌책방 : 있음",대구
321,101부티크북스,북카페,42140.0,대구광역시 수성구 범어천로 60-7 1층,35.8516965,128.6245001,독서활동장소,"주차 : 가능, 카페 : 있음",대구
322,진책방,일반서점,42132.0,대구광역시 수성구 수성로64길 53 1층,35.85320755,128.6165411,"책, 독서모임, 허브차, 꽃차, 일리커피",카페 : 있음,대구
323,만화카페애니씨,북카페,42274.0,대구광역시 수성구 신매로19길 38,35.8393754,128.7076572,만화카페,"카페 : 있음, 리뷰여부 : 있음",대구
324,읽다익다 책방,일반서점,42283.0,대구광역시 수성구 신매로8길 8-11 1층 책방 읽다익다,35.83402447,128.7089144,"인문학 책방과 독서치료상담,북테라피,등 모임 운영",카페 : 있음,대구
325,읽다익다 책방,일반서점,42283.0,대구광역시 수성구 신매로8길 8-11 1층 책방 읽다익다,35.83402447,128.7089144,"주인장의 북큐레이션, 독서치료상담, 북테라피, 퍼스널 브랜딩, 컨설팅, 책방자체프로그램 진행",카페 : 있음,대구
326,더하우스오브북스,북카페,42187.0,대구광역시 수성구 지범로 69,35.8268081,128.6285522,-,카페 : 있음,대구
327,북카페커피하우스,북카페,42200.0,대구광역시 수성구 지범로41길 36,35.82120865,128.6461306,독서활동장소,카페 : 있음,대구
328,미네르바의부엉이,북카페,42112.0,대구광역시 수성구 청수로45길 151-8 1층,35.8424107,128.6316714,독서활동장소,카페 : 있음,대구
329,더폴락,일반서점,41918.0,대구광역시 중구 경상감영1길 62-5 1층 더폴락,35.87363958,128.5932196,소규모 독립출판물을 만날 수 있는 작은 동네 책방 종종 작은 공연과 이벤트도 진행,카페 : 있음,대구
330,비트윈북스,일반서점,41918.0,대구광역시 중구 경상감영1길 62-5,35.87363958,128.5932196,"북코디네이션, 커뮤니티","주차 : 가능, 카페 : 있음",대구
331,에버글로우,카페,41912.0,대구광역시 중구 경상감영길 201,35.87198198,128.5985152,독서활동장소,카페 : 있음,대구
332,고스트북스,독립서점,41913.0,대구광역시 중구 경상감영길 212 3층,35.87162466,128.598902,"해외출판물,인문학,근대소설,우주과학등 예술서적",카페 : 있음,대구
333,차방책방,독립서점,41919.0,대구광역시 중구 경상감영길 60 1층 차방책방,35.8714059,128.5907563,독립서점과 북카페의 복합공간,카페 : 있음,대구
334,굿브랜딩북스,독립서점,41946.0,대구광역시 중구 달구벌대로447길 72-1,35.86561079,128.6083915,"큐레이션 서점, 핸드드립 커피도 판매",카페 : 있음,대구
335,영풍문고 대구 대백점,일반서점,41938.0,대구광역시 중구 동성로 30 대구백화점 지하 1층,35.86946198,128.5959439,다양한 국내외도서 취급,"주차 : 가능, 화장실 남녀구분 : 구분, 카페 : 있음",대구
336,노르웨이의 숲,북바,41942.0,대구광역시 중구 동성로2길 30-5,35.86732155,128.5968462,독서활동장소,"화장실 남녀구분 : 구분, 카페 : 있음",대구
337,북스치킨북카페,북카페,41967.0,대구광역시 중구 명륜로 71,35.86152584,128.5924939,"낮에는 북카페, 밤에는 치킨집",카페 : 있음,대구
338,낫온리북스,일반서점,41959.0,대구광역시 중구 봉산문화길 10 은성빌딩 5층 502호,35.86065174,128.5986274,사진집과 예술 서적을판매하는 작은 서점,카페 : 있음,대구
339,봉산19,독립서점,41958.0,대구광역시 중구 봉산문화길 19 2층,35.86096031,128.5981582,"독립출판물과 맥주,칵테일 판매점",카페 : 있음,대구
340,그레타책방,일반서점,41919.0,대구광역시 중구 서성로14길 14 1층,35.87241725,128.5883332,"그림책방, 인형극 책방",카페 : 있음,대구
341,그레타책방,일반서점,41919.0,대구광역시 중구 서성로14길 14 1층,35.87241725,128.5883332,독서활동장소,카페 : 있음,대구
342,대구하루,북카페,41918.0,대구광역시 중구 서성로14길 73,35.87301262,128.5916547,"한일문화교류 프로그램, 한국어/일본어 강좌",카페 : 있음,대구
343,남산상점,북카페,41965.0,대구광역시 중구 재마루1길 45 1층 남산상점,35.86338928,128.5883329,"책, 음료, 잠화 그리고 스위스 커피를 편하게 마시고 즐길 수 있는 공간",카페 : 있음,대구
344,북카페 민툰,만화방,41937.0,대구광역시 중구 중앙대로 412-52 지하1층,35.86973011,128.595211,"연인드르이 데이트 장소, 신개념의 힐링장소","화장실 남녀구분 : 구분, 카페 : 있음",대구
345,북카페세모 중리점,카페,34394.0,대전광역시 대덕구 한밭대로 1097 1층,36.35911814,127.4206572,"매장에서 직접 만든 신선한 디저트와 베이커리, 직접로스팅한 커피, 트렌디한 인테리어, 자리마다 콘센트 구비, 200원의 베스트셀러 책 구비","주차 : 가능, 화장실 남녀구분 : 구분, 카페 : 있음, 리뷰여부 : 있음",대전
346,북카페미소라,북카페,34394.0,대전광역시 대덕구 한밭대로 1133 증산도교육문화회관,36.35946116,127.4244989,"아기자기하고 독특한 인테리어, 액세서리 코너","주차 : 가능, 화장실 남녀구분 : 구분, 카페 : 있음, 리뷰여부 : 있음",대전
347,나나들북카페,북카페,34500.0,대전광역시 동구 대청호수로337번길 49,36.35799424,127.4758873,"마을 주민이 공간시설, 운영프로그램을 직접 디자인, 인근 경치가 아름다운 주산동마을회관, 모든 메뉴가 1000원","주차 : 가능, 카페 : 있음, 리뷰여부 : 있음",대전
348,에클레시아커피북카페,북카페,34609.0,대전광역시 동구 동대전광역시로 109 2층,36.33217542,127.4444263,"최대 20명의 단체손님도 예약 가능, 바리스타 직접 수업과 자격증 수업 가능","화장실 남녀구분 : 구분, 카페 : 있음, 리뷰여부 : 있음",대전
349,그림공간,북카페,35357.0,대전광역시 서구 원도안로179번길 68 1층 카페 그림공간,36.3183280729407,127.3440269,독서활동장소,"주차 : 가능, 화장실 남녀구분 : 구분, 카페 : 있음, 리뷰여부 : 있음",대전
350,보물썸 송촌점,북카페,34409.0,대전광역시 대덕구 계족산로81번길 40,36.36486969,127.439493,만화카페,"화장실 남녀구분 : 구분, 카페 : 있음, 리뷰여부 : 있음",대전
351,오정북카페,도서관,34431.0,대전광역시 대덕구 동산초교로 82 오정교회,36.35081078,127.4247068,도서관 내 카페,카페 : 있음,대전
352,꽁냥꽁냥,북카페,34431.0,대전광역시 대덕구 한남로 23 4층,36.35098041,127.4256449,무인 운영 만화카페,"화장실 남녀구분 : 구분, 카페 : 있음, 리뷰여부 : 있음",대전
353,카페허밍 꿈꾸는연어점,북카페,34535.0,대전광역시 동구 동대전광역시로284번길 105,36.34888459,127.450076,"대전광역시의 랜드마크를 꿈꾸는 길드형 카페, 매일 매일 로스팅을 하고 좋은 문화를 만들기 위해 노력중","주차 : 가능, 화장실 남녀구분 : 구분, 카페 : 있음, 리뷰여부 : 있음",대전
354,심심푸리 대전복합터미널점,북카페,34572.0,대전광역시 동구 동서대로 1688,36.34885277,127.4374401,"200평 규모의 만화카페, 5만여권의 웹툰 구비, 데이트장소로 좋음","카페 : 있음, 리뷰여부 : 있음",대전
355,드림폴리북카페,카페,34503.0,대전광역시 동구 우암로 352-21,36.35063312,127.454342,독서활동장소,"카페 : 있음, 리뷰여부 : 있음",대전
356,카페허밍,카페,34570.0,대전광역시 동구 태전로 132-18,36.34038986,127.4225864,독서활동장소,"주차 : 가능, 카페 : 있음, 리뷰여부 : 있음",대전
357,유앤아이,북카페,34554.0,대전광역시 동구 홍도로33번길 74-14,36.35081081,127.4266328,"카페와 스터디룸, 독서실이 공존하는 멀티카페, 커피한잔과 함께하는 여유는 물론 개인열람실을 갖추고 있음","화장실 남녀구분 : 구분, 카페 : 있음, 리뷰여부 : 있음",대전
358,삼요소,독립서점,35231.0,대전광역시 서구 갈마역로 1 (2층),36.35094631,127.3731452,"서점,카페,문화공간,""독립서점""서점","카페 : 있음, 리뷰여부 : 있음",대전
359,도안아이파크드림북카페,북카페,35355.0,대전광역시 서구 도안동로 183,36.32286825,127.345736,독서활동장소,"카페 : 있음, 리뷰여부 : 있음",대전
360,심심푸리 가수원점,북카페,35368.0,대전광역시 서구 도안동로11번길 48,36.30588762,127.3501949,"연인, 친구와 함꼐하는 공간","카페 : 있음, 리뷰여부 : 있음",대전
361,깝툰,북카페,35229.0,대전광역시 서구 둔지로 36,36.35272294,127.3769018,누워서 편안히 만화나 잡지 혹은 보드게임을 즐길 수 있는 문화공간,"주차 : 가능, 화장실 남녀구분 : 구분, 카페 : 있음, 리뷰여부 : 있음",대전
362,이츠타임,북카페,35240.0,대전광역시 서구 둔산로 129 메디빌딩 B102,36.35158351,127.3883119,"커피, 수제맥주, 와인을 판매하는 브런치&북카페, 서점과 연결되어 있어 책구매, 방문이 편리","화장실 남녀구분 : 구분, 카페 : 있음, 리뷰여부 : 있음",대전
363,탁마,북카페,35235.0,대전광역시 서구 둔산서로 17,36.34825026,127.3825912,스터디카페,"카페 : 있음, 리뷰여부 : 있음",대전
364,다락만화카페,북카페,35263.0,대전광역시 서구 문정로 78 정우빌딩,36.34643081,127.3878923,"맛있는 커피와 다양한 먹거리, 2만권의 만화책, 인기소설과 다양한 책, 각 국가별 도시별 여행책과 여행정보, 인기보드게임 등 구비","카페 : 있음, 리뷰여부 : 있음",대전
365,노란우산 그림서적카페,독립서점,35415.0,대전광역시 서구 복수남로12번길 44 105호,36.29920237,127.380992,"그림서적카페, 단행본그림서적","주차 : 가능, 화장실 남녀구분 : 구분, 카페 : 있음, 리뷰여부 : 있음",대전
366,깝툰만화&플스방,만화방,35214.0,대전광역시 서구 청사로123번길 34,36.36132559,127.3776699,"취향 저격 만화카페 & PS4 구비, 이색데이트 공간","화장실 남녀구분 : 구분, 카페 : 있음, 리뷰여부 : 있음",대전
367,cafede로데오코믹스,북카페,34138.0,대전광역시 유성구 궁동로18번길 58,36.36263681,127.350507,만화카페,"화장실 남녀구분 : 구분, 카페 : 있음, 리뷰여부 : 있음",대전
368,수상한다락방,북카페,34086.0,대전광역시 유성구 노은로 178 금강프라자 4층 수상한다락방,36.3755904,127.3185077,아늑하고 조용한 개별공간이 마련되어 있으며 3만권 이상의 만화를 비롯하여 그랙픽노블과 웹툰까지 다양하게 구비,"카페 : 있음, 리뷰여부 : 있음",대전
369,마을,카페,34138.0,대전광역시 유성구 대학로151번길 38,36.36237395,127.3503096,"스터디 하기 좋은, 시험 공부 친구들과의 친목 수다 모든 것이 가능한 복합 문화 카페","화장실 남녀구분 : 구분, 카페 : 있음, 리뷰여부 : 있음",대전
370,그리고 시간,카페,34155.0,대전광역시 유성구 동서대로5번길 21-16,36.35980062,127.3067329,독서활동장소,"카페 : 있음, 리뷰여부 : 있음",대전
371,서점이도저도,독립서점,34117.0,대전광역시 유성구 신성로62번길 15 1층,36.38855697,127.3486329,"소설,에세이,그림서적,인문학 등 다양한 책과 카페운영","주차 : 가능, 카페 : 있음, 리뷰여부 : 있음",대전
372,꽃나래허브,카페,34139.0,대전광역시 유성구 어은로 42 우진빌딩 301호,36.36222753,127.3576862,꽃차&허브차 공방 겸 카페,"카페 : 있음, 리뷰여부 : 있음",대전
373,버찌책방,일반서점,34071.0,대전광역시 유성구 지족로349번길 48-7,36.38749652,127.3171427,"맛있는 커피, 티가 있는 우리 동네 문화 사랑방","화장실 남녀구분 : 구분, 카페 : 있음, 리뷰여부 : 있음",대전
374,배재대학교대덕밸리캠퍼스북카페,북카페,34015.0,대전광역시 유성구 테크노1로 11-3,36.43222407,127.3887829,독서활동장소,카페 : 있음,대전
375,휘게문고 대전점,일반서점,34030.0,대전광역시 유성구 테크노중앙로 123,36.42343715,127.3985166,국내외 다양한 도서,"카페 : 있음, 리뷰여부 : 있음",대전
376,심심푸리 만화카페,북카페,34018.0,대전광역시 유성구 테크노중앙로 54,36.42605653,127.3913289,새로운 데이트 공간,"주차 : 가능, 화장실 남녀구분 : 구분, 카페 : 있음, 리뷰여부 : 있음",대전
377,애트,복합공간,34832.0,대전광역시 중구 대전광역시천서로 467-1 1층,36.330199,127.4279321,"최고 사양 빔프로젝터 무료사용, 화이트보드 제공","화장실 남녀구분 : 구분, 카페 : 있음, 리뷰여부 : 있음",대전
378,신나는북새통,북카페,34922.0,대전광역시 중구 대종로488번길 46,36.32884935,127.4286353,"깨끗한 인테리어로 커플, 친구들끼리 오기 좋음, 분리된 개인공간으로 혼자 오시는 분들도 많음","화장실 남녀구분 : 구분, 카페 : 있음, 리뷰여부 : 있음",대전
379,소녀감성,카페,34862.0,대전광역시 중구 보문로 293 협동의집 1층,36.32844183,127.4203183,"책, 커피, 디저트를 즐길 수 있는 조용하고 따뜻한 분위기의 카페","화장실 남녀구분 : 구분, 카페 : 있음, 리뷰여부 : 있음",대전
380,정혜씨네북카페,북카페,34839.0,대전광역시 중구 중앙로 119,36.32794531,127.4228696,독서활동장소,"카페 : 있음, 리뷰여부 : 있음",대전
381,고로고로 만화카페,북카페,34921.0,대전광역시 중구 중앙로164번길 22-12,36.32834042,127.4275613,"130평의 만화카페, 쾌적한 환경과 다양한 먹거리, 최신카툰 및 웹툰 다량보유","카페 : 있음, 리뷰여부 : 있음",대전
382,놀이터카페,북카페,46764.0,부산 강서구 명지동 3239-106,35.08379222,128.9042195,독서활동장소,"카페 : 있음, 리뷰여부 : 있음",부산
383,심심푸리 북카페,북카페,48498.0,부산 남구 용소로14번길 9,35.13582299,129.1002664,"만화카페, 경상대 부근","화장실 남녀구분 : 구분, 카페 : 있음",부산
384,북카페심심푸리 동래역점,북카페,47736.0,부산 동래구 명륜로129번길 2,35.20559255,129.0820098,"만화카페, 누워 쉬면서 만화 볼 수 있음, 독립된 공간에서 음악 들으며 힐링 가능","화장실 남녀구분 : 구분, 카페 : 있음",부산
385,류영진부산경제연구소&북카페,북카페,47270.0,부산 부산진구 가야대로 517 7층,35.15366946,129.0285638,-,"화장실 남녀구분 : 구분, 카페 : 있음",부산
386,책읽는정원카페북가든,북카페,47296.0,부산 부산진구 동천로 61 2층,35.15417296,129.0621437,"만화카페, 편하고 깔끔한 분위기","화장실 남녀구분 : 구분, 카페 : 있음",부산
387,북카페심심푸리,북카페,47292.0,부산 부산진구 중앙대로702번길 33,35.15555206,129.061119,"만화카페, 차별화된 인테리어, 음식주문 가능","화장실 남녀구분 : 구분, 카페 : 있음",부산
388,미스터힐링 양정점,북카페,47210.0,부산 부산진구 중앙대로969번길 11 롯데갤러리움상가 1층 c동 101호,35.17587419,129.0728552,"소통 카페, 만화카페, 세미나실이 있어 모임하기에 적합한 장소, 롯데갤러리움 지하주차장 이용시 3시간 무료주차","주차 : 가능, 화장실 남녀구분 : 구분, 카페 : 있음",부산
389,심심푸리북카페 사상점,북카페,46968.0,부산 사상구 사상로202번길 16 강림빌딩,35.16339512,128.9852297,"만화카페, 다양한 보드게임, 다양한 음식",카페 : 있음,부산
390,닥밭골북카페,북카페,49215.0,부산 서구 동대신동2가 80-2,35.11402224,129.0236773,독서활동 장소,"주차 : 가능, 화장실 남녀구분 : 구분, 카페 : 있음",부산
391,인문학 북카페 동행,도서관,47578.0,부산 연제구 월드컵대로92번길 49,35.1829497,129.0860464,-,"카페 : 있음, 리뷰여부 : 있음",부산
392,플러스북카페,북카페,49035.0,부산 영도구 대교로 1 미라클타워 지하1층,35.09269069,129.0442701,"만화카페, 24시 카페, 100평 넓이의 널찍한 공간, '룸'에서 편하게 즐길 수 있는 공간","주차 : 가능, 화장실 남녀구분 : 구분, 카페 : 있음",부산
393,북카페숲,북카페,49115.0,부산 영도구 중리로 46-12,35.07492567,129.0689117,"독서활동, 다양한 쿠기","주차 : 가능, 화장실 남녀구분 : 구분, 카페 : 있음",부산
394,쿠무다,북카페,48073.0,부산 해운대구 송정광어골로 62 송정동신라빌딩,35.17611916,129.1958801,독서활동장소,카페 : 있음,부산
395,소담북카페,북카페,46726.0,부산광역시 강서구 명지국제8로 289,35.09792845,128.9244671,독서활동장소,카페 : 있음,부산
396,라온만화카페,만화방,46765.0,부산광역시 강서구 명지오션시티4로 64,35.08328789,128.9032336,만화+먹거리+놀거리 신 개념 문화공간,"주차 : 가능, 화장실 남녀구분 : 구분, 카페 : 있음",부산
397,산책북까페,북카페,46760.0,부산광역시 강서구 신호산단1로98번길 67 309동 14호,35.08078937,128.874884,독서활동장소,카페 : 있음,부산
398,사적인 도서관,북카페,46283.0,부산광역시 금정구 금강로 326-2,35.23708452,129.0868389,"골목길 끝에 있는 작은 도서관으로, 읽다 만 책을 완독하기도, 또 사색의 시간을 가지며 쉬어 가는 곳",카페 : 있음,부산
399,Dreamup place,북카페,46287.0,부산광역시 금정구 금강로321번안길 3,35.23682836,129.0848037,"창업을 준비하시는 분 취업 및 이직을 준비하시는 분 재테크를 하고자 하시는 분, 책을 좋아하시는분",카페 : 있음,부산
400,금정북카페,북카페,46213.0,부산광역시 금정구 금정도서관로 33,35.27261386,129.0961825,독서활동장소,카페 : 있음,부산
401,쓰다북스,독립서점,46244.0,부산광역시 금정구 금정로 197 쓰다북스,35.24222827,129.0884612,"캘리그라피관련 지류 용품과 책 판매, 카페를 즐길 수 있음",카페 : 있음,부산
402,코코커피,북카페,46292.0,부산광역시 금정구 금정로60번길 24,35.22950508,129.0874797,독서활동장소,"카페 : 있음, 리뷰여부 : 있음",부산
403,카페 헤세이티,북카페,46285.0,부산광역시 금정구 금정로91번길 22,35.23308746,129.0857818,"다양한 강사를 초청해서 문학, 철학, 연극 등 다양한 인문학 관련 강의를 여는 곳으로 유명한 인문학 카페",카페 : 있음,부산
404,샵메이커즈,일반서점,46286.0,부산광역시 금정구 부산대학로64번길 120 1F,35.2367216,129.0858991,"책방, 소품샵, 카페 겸 독립서점",카페 : 있음,부산
405,섯골 북카페,북카페,46317.0,부산광역시 금정구 서곡로33번길 9 2층,35.21719666,129.1039297,독서활동장소,"카페 : 있음, 리뷰여부 : 있음",부산
406,네잎크로버스토리,북카페,48490.0,부산광역시 남구 석포로 23-2,35.12262779,129.0835468,-,카페 : 있음,부산
407,북카페백경,일반서점,48457.0,부산광역시 남구 수영로 74-5 무학프라자 상가 201호,35.13471477,129.0752585,신간과 중고책을 선택해서 읽으시면 음료가 무료로 제공,"주차 : 가능, 화장실 남녀구분 : 구분, 카페 : 있음",부산
408,연원책방카페,북카페,48498.0,부산광역시 남구 용소로40번길 4 3층,35.13392866,129.1005893,"부경대학교 정문앞에 위치한 책방 겸 카페. 모든 도서, 중국원서 구입 가능","화장실 남녀구분 : 구분, 카페 : 있음",부산
409,상록도서,일반서점,48724.0,부산광역시 동구 정공단로 47,35.13665322,129.0554617,차도 마시며 토론도 할 수 있는 북카페로서 분위기 있는 서점,"주차 : 가능, 카페 : 있음",부산
410,사랑하다커피앤북 부산역점,카페,48760.0,부산광역시 동구 중앙대로 206,35.11811178,129.0448725,독서활동장소,카페 : 있음,부산
411,탱자나무431,북카페,47857.0,부산광역시 동래구 석사로 43-1 탱자나무431,35.20032479,129.0639396,독서활동장소,"주차 : 가능, 화장실 남녀구분 : 구분, 카페 : 있음",부산
412,북살롱 부산,일반서점,47816.0,부산광역시 동래구 온천천로 197 3층,35.20181927,129.0791238,차한잔의 여유와 맥주한잔의 흥겨움이 있는 동네 카페 &서점,"주차 : 가능, 카페 : 있음",부산
413,북컬쳐서면점,만화방,47296.0,부산광역시 부산진구 동천로 59,35.15402261,129.0621265,독서활동장소,"화장실 남녀구분 : 구분, 카페 : 있음",부산
414,테이블매스,북카페,47297.0,부산광역시 부산진구 전포대로189번길 30 몽뜨레 2층,35.15371867,129.0634971,독서활동장소,카페 : 있음,부산
415,부산진구노인전용북카페,북카페,47236.0,부산광역시 부산진구 전포대로300번길 6,35.16404777,129.0658468,노인 전용 북카페,카페 : 있음,부산
416,커피커피룸룸,카페,46599.0,부산광역시 북구 모분재로 6,35.20698806,129.0063158,독서활동장소,카페 : 있음,부산
417,우리동네북카페 부산구포본점,북카페,46626.0,부산광역시 북구 시랑로 171,35.19600041,129.0140295,독서활동장소,카페 : 있음,부산
418,메멘토모리 책방,일반서점,46527.0,부산광역시 북구 화명신도시로 71 2층,35.23045874,129.0098703,"동네서점,핸드드립커피, 음료판매",카페 : 있음,부산
419,굿드림,북카페,46957.0,부산광역시 사상구 백양대로700번길 13,35.1694733,128.9894472,-,카페 : 있음,부산
420,도로시만화카페,북카페,47053.0,부산광역시 사상구 학감대로 103 학장로교회빌딩 3층,35.14040961,128.9890847,만화 카페,"화장실 남녀구분 : 구분, 카페 : 있음",부산
421,커피열매 북카페,북카페,49504.0,부산광역시 사하구 다대낙조2길 15,35.05109019,128.9637923,-,"카페 : 있음, 리뷰여부 : 있음",부산
422,플루800서부경찰서점,카페,49228.0,부산광역시 서구 대영로 32-1,35.10929389,129.0150597,-,카페 : 있음,부산
423,북카페잼잼,북카페,49214.0,부산광역시 서구 망양로193번길 104,35.11116846,129.0263479,독서활동장소,카페 : 있음,부산
424,만화야놀자,만화방,49205.0,부산광역시 서구 보수대로258번길 18 지하1층,35.11775926,129.0175621,만화카페,"화장실 남녀구분 : 구분, 카페 : 있음",부산
425,아삭김치북카페,북카페,48204.0,부산광역시 수영구 과정로61번길 7-2,35.17671637,129.1062099,홍보관,카페 : 있음,부산
426,두두디북스,일반서점,48302.0,부산광역시 수영구 수영로510번길 43 지하1층,35.15087627,129.1139417,"독서모임, 카페, 독서 가능한 북카페",카페 : 있음,부산
427,프리젠트 카페,카페,48315.0,부산광역시 수영구 황령산로 31,35.14841141,129.1076005,"야경,서점을 같이 즐길 수 있는 북카페",카페 : 있음,부산
428,문화공간민들레,북카페,47531.0,부산광역시 연제구 해맞이로105번길 9,35.1834153,129.0691627,독서활동장소,"주차 : 가능, 카페 : 있음",부산
429,여울책장,북카페,49081.0,부산광역시 영도구 흰여울길 381 여울책장,35.07717068,129.0465337,부산 영도 흰여울 문화마을의 아름다운 바다를 한눈에 내려다 보며 책과 차 한잔의 여유를 느낄 수 있는 공간,카페 : 있음,부산
430,콩툰 부산남포점,북카페,48953.0,부산광역시 중구 구덕로 50,35.09853129,129.0303579,"소방시설 관련해서 고객의 안전과 직결되는 중요한 부분에 있어 완벽하게 설계 완료, 다양한 종류의 만화책과 카페메뉴 구비","화장실 남녀구분 : 구분, 카페 : 있음",부산
431,우리글방,일반서점,48967.0,부산광역시 중구 대청로 63,35.10323172,129.0269035,보수동 책방골목에 위치한 헌책방과 함께 운영되는 북카페,카페 : 있음,부산
432,일첼로,북카페,48949.0,부산광역시 중구 대청로116번길 8,35.10219283,129.0323367,독서활동장소,카페 : 있음,부산
433,백년어서원,북카페,48932.0,부산광역시 중구 대청로135번길 5,35.10323395,129.0345805,독서활동장소,카페 : 있음,부산
434,상상공간아르케,북카페,48932.0,부산광역시 중구 대청로135번길 5,35.10323395,129.0345805,독서활동장소,"카페 : 있음, 리뷰여부 : 있음",부산
435,주책공사,독립서점,48930.0,부산광역시 중구 대청로141번길 15-1 1층,35.10423999,129.035063,커피와 책이 있는 문화복합공간,카페 : 있음,부산
436,밀다원시대,북카페,48901.0,부산광역시 중구 망양로383번안길 19,35.10983819,129.0296888,독서활동장소,카페 : 있음,부산
437,티앤북스 남포점,북카페,48981.0,부산광역시 중구 비프광장로 20 남포프라자 2층,35.09842224,129.0276598,"복합문화카페, 티앤북스 남포점, 편안하게 누워서 만화도 보고 음료 한잔에 눈치보지 않고 스터디 할 수 있는 곳","주차 : 가능, 화장실 남녀구분 : 구분, 카페 : 있음",부산
438,12h 북카페,카페,48953.0,부산광역시 중구 비프광장로 37 지하 영풍문고내 12h 북카페,35.09860564,129.0294679,좋은 음식을 먹고 몸이 다시 태어나자,"주차 : 가능, 화장실 남녀구분 : 구분, 카페 : 있음",부산
439,영풍문고 부산 남포점,일반서점,48953.0,부산광역시 중구 비프광장로 37,35.09860564,129.0294679,독서활동장소,"주차 : 가능, 카페 : 있음",부산
440,내서재,북카페,48117.0,부산광역시 해운대구 달맞이길117번길 53 리버스빌,35.16002592,129.1753968,독서활동장소,"주차 : 가능, 화장실 남녀구분 : 구분, 카페 : 있음",부산
441,부산양서협동조합,일반서점,48092.0,부산광역시 해운대구 마린시티3로 1 썬프라자,35.15785984,129.1475485,"문화공간, 북카페, 서점 운영",카페 : 있음,부산
442,반디앤루니스 신세계센텀시티몰점 B2층,일반서점,48058.0,부산광역시 해운대구 센텀4로 15 센텀시티몰 B2층,35.16986121,129.1282903,"다양한 서적,음반,문구,북카페 등 문화생활이 이루어지는 공간","화장실 남녀구분 : 구분, 카페 : 있음",부산
443,반디앤루니스 신세계센텀시티몰점,일반서점,48058.0,부산광역시 해운대구 센텀4로 15 신세계 센텀시티몰 지하2층,35.16986121,129.1282903,"다양한 서적,음반,문구,북카페 등 문화생활이 이루어지는 공간","화장실 남녀구분 : 구분, 카페 : 있음",부산
444,반디앤루니스부산신세계센텀시티점,일반서점,48058.0,부산광역시 해운대구 센텀4로 15,35.16986121,129.1282903,"다양한 서적,음반,문구,북카페 등 문화생활이 이루어지는 공간","화장실 남녀구분 : 구분, 카페 : 있음",부산
445,장산길행복마을운영위원회,북카페,48018.0,부산광역시 해운대구 아랫반송로26번길 25,35.22493282,129.1478501,독서활동장소,카페 : 있음,부산
446,북카페하늘정원,북카페,48088.0,부산광역시 해운대구 우동1로 27-1,35.17944047,129.159942,교회 내 카페,카페 : 있음,부산
447,AR영어북카페,북카페,6280.0,서울 강남구 남부순환로 2927 대치클래시아 124~125호,37.49366458,127.0603395,"다양한 영어책, 르네상스러닝 독서프로그램, 성공적인 영어독서 습관 획득 가능","주차 : 가능, 화장실 남녀구분 : 구분, 카페 : 있음",서울
448,북카페레벤,북카페,6111.0,"서울 강남구 학동로 116 북카페레벤, 성바오로서원",37.51157733,127.0236472,"편한 분위기, 좋은 가성비, 모임하기에 좋은 장소","주차 : 가능, 화장실 남녀구분 : 구분, 카페 : 있음",서울
449,파믹스센터 이야기북카페,북카페,5273.0,서울 강동구 고덕로 314 파믹스센터 1층카페,37.55562027,127.1607114,서울에서 자연을 느낄 수 있는 힐링공간 디저트 카페,"주차 : 가능, 화장실 남녀구분 : 구분, 카페 : 있음",서울
450,책방늘봄,북카페,5399.0,서울 강동구 성내로10길 9-14 101호,37.52808816,127.1252793,커피&샌드위치 전문점,"주차 : 가능, 카페 : 있음",서울
451,뜨레모아,북카페,5404.0,서울 강동구 양재대로89길 16 파크프라자,37.52692315,127.134706,딱딱한 도심속에 숨어있는 아늑하고 향기로운 작은 책방,"주차 : 가능, 화장실 남녀구분 : 구분, 카페 : 있음",서울
452,윌리엄 커피,카페,5391.0,서울 강동구 풍성로 92 한스빌딩,37.5326172,127.1224091,"고소하게 볶은 커피를 준비해 윌리엄 레시피로 한방울 한방울 추출한 콜드브루, 브러치 식사와 맛있는 커피, 디저티갖 ㅜㄴ비, 신선한 재료와 정직한 조리방법","주차 : 가능, 화장실 남녀구분 : 구분, 카페 : 있음",서울
453,꿈뜨락 북카페,북카페,7558.0,서울 강서구 공항대로 615,37.54732566,126.8733034,분위기 있고 맛있는 디저트,카페 : 있음,서울
454,지오북카페,북카페,8788.0,서울 관악구 관악로12길 3-6 성효빌딩,37.47839733,126.9527816,"프라모델, 피규어, 컨트리 인형 등 아기자기한 소품들이 있음, 조용한 분위기",카페 : 있음,서울
455,카툰앤북카페 검정고무신 건대입구점,북카페,5017.0,서울 광진구 아차산로 241 연한빌딩 3층,37.54049779,127.0701285,"만화카페, 편한 소파베드, 3만여권의 만화책","화장실 남녀구분 : 구분, 카페 : 있음",서울
456,북카페세모,카페,5017.0,"서울 광진구 아차산로31길 20 2층, 3층",37.54190035,127.0697377,"책, 디저트, 와인과 함께 파티가 열리는 곳, 신간 베스트셀러 200여권의 책 비치, 직접 로스팅한 원두 사용","주차 : 가능, 화장실 남녀구분 : 구분, 카페 : 있음",서울
457,24시프리카페 건대점,북카페,5073.0,서울 광진구 아차산로34길 26,37.53900309,127.0691174,프리카페는 독서실처럼 조용한 분위기를 원하시는 분들이 이용하시기 좋은공간,"주차 : 가능, 화장실 남녀구분 : 구분, 카페 : 있음",서울
458,불카페 조이,북카페,8319.0,서울 구로구 구로동로8길 7,37.48624591,126.8858454,"음향시설, 프로잭터 사용가능, 활용공간 약 25평, 지하공간도 임대 가능",카페 : 있음,서울
459,통통북카페,북카페,8256.0,서울 구로구 부일로 949 구로청소년문화의집,37.49340075,126.8327139,독서활동 장소,"주차 : 가능, 화장실 남녀구분 : 구분, 카페 : 있음, 리뷰여부 : 있음",서울
460,중계사랑북카페,북카페,1717.0,서울 노원구 덕릉로82길 50 중계4동주민센터,37.65875807,127.0779605,주민센터내 북카페,카페 : 있음,서울
461,엘까미노,북카페,1751.0,서울 노원구 동일로 1390 상계주공6단지아파트,37.65236575,127.0614598,독서활동 장소,카페 : 있음,서울
462,책인감,일반서점,1846.0,서울 노원구 동일로182길 63-1 2층,37.62358717,127.0775228,책방이자 사람이 모이고 감성이 있는 장소,카페 : 있음,서울
463,공덕골아름드리 북카페모모,북카페,1844.0,서울 노원구 동일로186길 3-24 1층 공덕골아름드리 북카페모모,37.62471985,127.0737364,마을커뮤니티 공간,"카페 : 있음, 리뷰여부 : 있음",서울
464,책사랑북카페,북카페,1713.0,서울 노원구 한글비석로 279 중계1동 주민센터,37.65253701,127.0774594,독서활동 장소,카페 : 있음,서울
465,도란도란북카페,북카페,1667.0,서울 노원구 한글비석로 434 상계5동주민센터,37.66297037,127.069351,독서활동 장소,"카페 : 있음, 리뷰여부 : 있음",서울
466,마을북카페행복한이야기,북카페,1414.0,서울 도봉구 창동 20,37.65344872,127.0492974,독서활동 장소,카페 : 있음,서울
467,카페오드리 상도점,카페,6919.0,서울 동작구 양녕로 265 카페오드리,37.50373049,126.9482318,"신선한 재료, 홈메이드, Low Sugar","주차 : 가능, 카페 : 있음",서울
468,북카페 산책,북카페,4031.0,서울 마포구 동교로 156-10 사단법인한국기독학생중앙회관,37.55520124,126.919633,"좋은 분위기와 음악, 책 구매 가능, 숯불 로스팅으로 직접 볶은 원두커피","주차 : 가능, 화장실 남녀구분 : 구분, 카페 : 있음",서울
469,만화방구,북카페,3984.0,서울 마포구 동교로 235-1,37.56104461,126.9240875,"담요, 와이파이, 핸드폰 충전기 대여서비스, 뒹굴뒹굴 가능 굴방들",카페 : 있음,서울
470,할리스커피 공덕역북카페점,카페,4213.0,서울 마포구 마포대로 100,37.55076861,126.9305728,"다양한 토양과 기후에서 자란 커피 원두 사용, 원두 본연의 맛을 살리기 위한 블랜딩","화장실 남녀구분 : 구분, 카페 : 있음",서울
471,채그로,북카페,4178.0,서울 마포구 마포대로4다길 31 아리수(옵티마)빌딩 8층 신관,37.53564599,126.9442422,한강뷰가 아름다운 독서 피트니스 interactive 서점,"주차 : 가능, 화장실 남녀구분 : 구분, 카페 : 있음",서울
472,연남동 별빛카페달빛차,북카페,3988.0,서울 마포구 성미산로 128,37.56290834,126.9209706,맛있는 커피로 정성껏 서비스,"주차 : 가능, 카페 : 있음",서울
473,20000dol북카페,북카페,3934.0,서울 마포구 성암로11길 7,37.57368848,126.902804,분위기 최고의 북카페,카페 : 있음,서울
474,쿡앤북,카페,4072.0,서울 마포구 성지3길 61,37.54625061,126.916322,"달콤한 자연식 베이킹의 저자가 오픈한 카페, 버터와 계란을 사용하지 않고 식물성 재료만으로 만든 쿠키와 케익, 머핀등이 준비, 세미나를 할 수 있는 공간도 준비",카페 : 있음,서울
475,디어라이프,북카페,4043.0,서울 마포구 양화로12길 16-9 지하 1층,37.55162376,126.9186095,책과 커피가 함께하는 따뜻한 공간으로 드러오는 입구엔 프란츠 카프카의 문구를 새긴 구조물이 반기고 있음,"화장실 남녀구분 : 구분, 카페 : 있음",서울
476,카페책속의한줄,북카페,3988.0,서울 마포구 연남로3길 22-15,37.56144585,126.9206634,독서활동 장소,카페 : 있음,서울
477,카페창비,북카페,4004.0,"서울 마포구 월드컵로12길 7 창비서교빌딩 1층, 지하1층",37.5553333,126.9114483,"다양한 큐레이션으로 만날 수 있는 책, 일상의 변화를 주는 모임과 이벤트가 가득","주차 : 가능, 화장실 남녀구분 : 구분, 카페 : 있음",서울
478,당인리책발전소,일반서점,4004.0,서울 마포구 월드컵로14길 10-8,37.55568174,126.9111264,"카페와 독립서점을 한 공간에서 즐길 수 있는 장소, 오상진 김소영 아나운서가 운영하는 북카페",카페 : 있음,서울
479,북카페 다독다독,북카페,4054.0,서울 마포구 홍익로2길 16 마포평생학습관 1층,37.55431473,126.9241842,"도서관 내 카페, 수입금은 발달장애인 바리스타 훈련 및 일자리 창출을 위해 사용됨","주차 : 가능, 카페 : 있음",서울
480,북카페 피터캣,북카페,3785.0,서울 서대문구 신촌로 21 2층,37.55805521,126.9292689,"""주말마다 열리는 독서모임, 주인장이 추천하는 도서만 판매",카페 : 있음,서울
481,북카페파오,카페,3767.0,서울 서대문구 이화여대길 34 신흥빌딩 3층,37.55843936,126.945924,"기획, 전시, 강의, 독립출판을 겸하고 있으며 북마페와 서점을 갖춘 복합 문화 공간, 매달 다양한 문화 행사 진행","화장실 남녀구분 : 구분, 카페 : 있음",서울
482,사랑해북갤러리,북카페,6754.0,서울 서초구 양재천로7길 16,37.47479659,127.0357595,"아름다운 인테리어, 고요한 분위기",카페 : 있음,서울
483,북카페초록,북카페,4768.0,서울 성동구 서울숲4길 28-3 지층 좌,37.54687581,127.0439983,"조용하고 안락한 북카페, 책 판매",카페 : 있음,서울
484,금호1가동 북카페 책단지꿀단지,북카페,4721.0,서울 성동구 행당로 15 금호1가동주민센터 1층,37.5548471,127.0216342,"저렴하고 조용한 분위기, 현금결제 불가",카페 : 있음,서울
485,꿈의숲푸르지오 키즈&맘북카페,도서관,2749.0,서울 성북구 오패산로16가길 40,37.60979018,127.0388783,"독서활동 장소, 작은 도서관","카페 : 있음, 리뷰여부 : 있음",서울
486,북카페리비,북카페,2741.0,서울 성북구 오패산로16가길 99,37.61245399,127.0373715,"교회 북카페, 기부 카페","주차 : 가능, 카페 : 있음",서울
487,한입스토리북 서울점,카페,2758.0,서울 성북구 장위동 301-2,37.62167585,127.0478896,독서활동 장소,카페 : 있음,서울
488,자작나무숲 북카페,북카페,2812.0,서울 성북구 정릉로10길 107,37.60505761,126.99853,"편안하고 아늑한 공간, 자작나무숲 내에 위치","주차 : 가능, 화장실 남녀구분 : 구분, 카페 : 있음",서울
489,북카페다리,북카페,5740.0,서울 송파구 동남로24길 11 1층,37.49961442,127.137498,"시낭송회, 음악회 등 문화 행사에 관련해서 재휴 가능, 작은 무대 준비",카페 : 있음,서울
490,라마므레카페,북카페,5794.0,서울 송파구 문정로 83 문정래미안아파트,37.48919877,127.130211,"문정동에 위치한 라 마므레 까페, 100% 아라비카 유기농 원두로 커피를 제조","주차 : 가능, 화장실 남녀구분 : 구분, 카페 : 있음",서울
491,카페 라임,카페,5570.0,서울 송파구 올림픽로10길 54,37.50704805,127.0813114,"바삭한 토스트와 커피가 맛있는 라임카페, 수제 생강차는 유기농설탕으로 만든 엑기스차로 정성껏 제조","주차 : 가능, 카페 : 있음",서울
492,나임 북 카페,북카페,5849.0,서울 송파구 위례광장로 193,37.48172636,127.1421812,하늘에서 가장 가까운 테라스 정원을 바라보면서 좋은 책과 함께할 수 있는 시간,카페 : 있음,서울
493,시티카메라,카페,4412.0,서울 용산구 우사단로10마길 4 시티카메라,37.53044186,127.0027417,사진과 카메라라는 매체를 기반으로 포토그래퍼들과 함께 실험적인 사진 프로젝트를 만들어가는 공간,카페 : 있음,서울
494,베세토,북카페,3172.0,서울 종로구 도렴동 80-3,37.57184292,126.9751568,독서활동 장소,"카페 : 있음, 리뷰여부 : 있음",서울
495,북카페마루,북카페,3015.0,서울 종로구 세검정로 227-3,37.60039591,126.957563,"다양한 음료와 커피가 있는 북카페, 가정집을 개조, 동호회나 세미나 모임 가능",카페 : 있음,서울
496,부쿠,일반서점,3145.0,서울 종로구 인사동길 49 안녕인사동 4층,37.57445627,126.9835323,좋은 분위기와 책 추천 방식이 좋은 서점,"주차 : 가능, 화장실 남녀구분 : 구분, 카페 : 있음",서울
497,장미마을 꽃망울 북카페,북카페,2012.0,서울 중랑구 동일로149길 49 1층,37.6063077,127.075539,독서활동 장소,카페 : 있음,서울
498,놀숲 강남논현점,만화방,6114.0,서울특별시 강남구 강남대로 532 지층,37.50957552,127.0224597,"일상에 즐거운 경험을 더하는 문화공간 카툰앤북카페, 편안한 좌석에서 맛있는 음식과 함께 책도 볼 수 있는 멀티 엔터테인먼트",카페 : 있음,서울
499,독서동행,일반서점,6124.0,서울특별시 강남구 강남대로102길 45 2층,37.50385152,127.0282641,2층 카페와 3층 루프탑. 책을 읽는 공간,"주차 : 가능, 화장실 남녀구분 : 구분, 카페 : 있음",서울
500,놀숲 강남역점,만화방,6129.0,서울특별시 강남구 강남대로98길 17 시티힐 빌딩,37.50098292,127.0279654,"일상에 즐거운 경험을 더하는 문화공간 카툰앤북카페, 편안한 좌석에서 맛있는 음식과 함께 책도 볼 수 있는 멀티 엔터테인먼트","주차 : 가능, 화장실 남녀구분 : 구분, 카페 : 있음",서울
501,이프렌딩,북카페,6129.0,서울특별시 강남구 강남대로98길 17,37.50098292,127.0279654,독서활동 장소,"카페 : 있음, 리뷰여부 : 있음",서울
502,와인북카페,북카페,6040.0,서울특별시 강남구 논현로149길 5 엔타시아 빌딩 1층,37.51854377,127.0280033,와인 애호가들의 놀이터로 사랑 받아온 와인북카페,"주차 : 가능, 화장실 남녀구분 : 구분, 카페 : 있음",서울
503,카페 쉼,카페,6037.0,서울특별시 강남구 논현로151길 30 1층,37.51981578,127.0257349,-,"주차 : 가능, 카페 : 있음",서울
504,디파지트 가로수길점,북카페,6029.0,서울특별시 강남구 논현로161길 59 지하,37.52216736,127.0235493,"'어서 와, 리더는 처음이지?' 저자 장영학이 운영한느 사람과 조직문화 큐레이션 북카페","화장실 남녀구분 : 구분, 카페 : 있음",서울
505,콘체르토,카페,6257.0,서울특별시 강남구 논현로63길 16 역삼종합시장 더블루 1층 콘체르토,37.49300839,127.0391441,"음악카페, 150인치 대형 스크린을 통한 영상물 감상, 와인 카페, 매주 토/일요일 클래식 음악감상회 개최","주차 : 가능, 화장실 남녀구분 : 구분, 카페 : 있음",서울
506,인사이드 cafe&study,북카페,6279.0,서울특별시 강남구 도곡로 434 청은빌딩 지하 1층,37.49760516,127.0579704,"독서활동, 스터디 장소",카페 : 있음,서울
507,북까페사가,북카페,6191.0,서울특별시 강남구 도곡로 509,37.49957517,127.0620599,-,카페 : 있음,서울
508,비비브라운,북카페,6062.0,서울특별시 강남구 도산대로 412 1층 카페 비비브라운,37.52296211,127.0407112,"산미가 없고 고소하고 깔끔한 목넘김이 특징인 커피, 24시간 운영, 프라이빗 미팅룸","주차 : 가능, 화장실 남녀구분 : 구분, 카페 : 있음",서울
509,놀숲 신사가로수길점,만화방,6035.0,서울특별시 강남구 도산대로11길 11 지하1층,37.51817202,127.0224141,"일상에 즐거운 경험을 더하는 문화공간 카툰앤북카페, 편안한 좌석에서 맛있는 음식과 함께 책도 볼 수 있는 멀티 엔터테인먼트","화장실 남녀구분 : 구분, 카페 : 있음",서울
510,ASSOULINE,카페,6021.0,서울특별시 강남구 도산대로45길 11 지하1층 애술린라운지,37.52305096,127.0352213,도심 속 근사한 북카페,"주차 : 가능, 카페 : 있음",서울
511,카페 마당,북카페,6021.0,서울특별시 강남구 도산대로45길 7 에르메스도산파크,37.52278446,127.0353453,"접시와 커트리, 소파에 이르기까지 모두 에르메스 제품을 사용하여 꾸며 놓음, 신라 호텔 30년 경력의 요리사가 샌드위치, 와규 스테이크 등의 식사류와 초코 수플레, 티라미수 같은 각종 디저트를 선보이고 있음",카페 : 있음,서울
512,콩툰 청담본점,북카페,6021.0,서울특별시 강남구 도산대로49길 3 씨씨빌딩,37.5230342,127.0369663,"만화카페 콩툰 청담점, 다양한 종류의 만화책과 카페 메뉴, 차별화된 인테리어와 시스템으로 편안하고 쾌적한 공간을 제공","화장실 남녀구분 : 구분, 카페 : 있음",서울
513,두잉,북카페,6084.0,서울특별시 강남구 삼성로 654 B01호,37.51859627,127.0507111,"페미니즘을 테마로 하는 멀티카페, 책, 미술품, 사진을 전시하는 갤러리, 여성주의 상담","주차 : 가능, 카페 : 있음",서울
514,북앤레스트,북카페,6166.0,서울특별시 강남구 삼성로104길 22 예림빌딩 1층,37.51094117,127.0565863,"스테이존, 레스트존, 프리이빗룸으로 공간을 나누어 각자가 원하는 방법으로 편하게 시간을 보낼 수 있도록 공간에 힘을 주었음","화장실 남녀구분 : 구분, 카페 : 있음",서울
515,최인아책방,일반서점,6149.0,서울특별시 강남구 선릉로 521,37.50605103,127.0479089,큐레이션 서점,카페 : 있음,서울
516,라이프북스,일반서점,6056.0,서울특별시 강남구 선릉로 741 1F 라이프북스,37.52046653,127.0398558,큐레이션 서점,"주차 : 가능, 카페 : 있음",서울
517,cafe랑담,북카페,6014.0,서울특별시 강남구 선릉로152길 18,37.52405248,127.0409443,독서활동 장소,"주차 : 가능, 화장실 남녀구분 : 구분, 카페 : 있음",서울
518,놀숲 압구정역점,만화방,6030.0,서울특별시 강남구 압구정로28길 22-6 지하 1층,37.52528081,127.0270223,"일상에 즐거운 경험을 더하는 문화공간 카툰앤북카페, 편안한 좌석에서 맛있는 음식과 함께 책도 볼 수 있는 멀티 엔터테인먼트","주차 : 가능, 카페 : 있음",서울
519,송송책방,북카페,6317.0,서울특별시 강남구 언주로 110 경상남도2차 상가 203호,37.48449217,127.0530857,"출판사 송송책방에서 운영하는 북카페, 주인 소장 책을 마음껏 이용할 수 있음, 책모임 환영","화장실 남녀구분 : 구분, 카페 : 있음",서울
520,JSTORY,북카페,6186.0,서울특별시 강남구 역삼로84길 8,37.50296265,127.0598021,독서활동 장소,카페 : 있음,서울
521,더착한커피 자곡점,북카페,6373.0,서울특별시 강남구 자곡로 120 세곡드림프라자 4층 405호,37.47214542,127.0965017,나눔의 시작 더착한커피,카페 : 있음,서울
522,영풍문고 강남 포스코점,일반서점,6194.0,서울특별시 강남구 테헤란로 440 포스코 센터 지하 1층,37.50581523,127.0561308,다양한 국내외도서 취급,"주차 : 가능, 카페 : 있음",서울
523,커피빈 올림픽공원북2문앞점,카페,5402.0,서울특별시 강동구 강동대로 193,37.52456388,127.1280151,일반카페,"화장실 남녀구분 : 구분, 카페 : 있음",서울
524,폴바셋 올림픽공원북2문점,카페,5402.0,서울특별시 강동구 강동대로 199 1층,37.52422351,127.1286965,독서활동 장소,카페 : 있음,서울
525,솔향기 북카페,도서관,5215.0,서울특별시 강동구 고덕로97길 20 강일리버파크10단지 관리사무소2층,37.55918548,127.1813625,독서활동 장소,"카페 : 있음, 리뷰여부 : 있음",서울
526,아크로폴리스 앤 노사인보드,북카페,5269.0,서울특별시 강동구 동남로73길 13,37.55274242,127.155461,독서활동 장소,카페 : 있음,서울
527,꿈꾸는나무,북카페,5367.0,서울특별시 강동구 명일로10길 24,37.53159091,127.1451654,독서활동 장소,"카페 : 있음, 리뷰여부 : 있음",서울
528,카페탄젠트,카페,5341.0,서울특별시 강동구 성안로 196 1층 카페탄젠트,37.54028224,127.137011,길동 커피 맛집,"주차 : 가능, 카페 : 있음",서울
529,고래힐 Book Cafe,도서관,5229.0,서울특별시 강동구 아리수로50길 50 커뮤니티센터 북카페,37.5583596,127.151086,영어프로그램 서비스,카페 : 있음,서울
530,놀숲 둔촌역점,만화방,5408.0,서울특별시 강동구 양재대로 1319 3층,37.5241941,127.1344379,"일상에 즐거운 경험을 더하는 문화공간 카툰앤북카페, 편안한 좌석에서 맛있는 음식과 함께 책도 볼 수 있는 멀티 엔터테인먼트","화장실 남녀구분 : 구분, 카페 : 있음",서울
531,강동구립북카페도서관 1호점,북카페,5373.0,서울특별시 강동구 양재대로 1419 2층,37.53298323,127.1376547,독서활동 장소,"화장실 남녀구분 : 구분, 카페 : 있음",서울
532,더라이브러리 명일역지점,복합공간,5292.0,서울특별시 강동구 양재대로 1622 2층 더라이브러리,37.55021198,127.1441043,독서활동 장소,"화장실 남녀구분 : 구분, 카페 : 있음",서울
533,도담도담북카페,도서관,5292.0,서울특별시 강동구 양재대로138길 37 명일1동 주민센터 1층,37.54976244,127.1459836,독서활동 장소,카페 : 있음,서울
534,커피랑도서관 암사점,스터디카페,5242.0,서울특별시 강동구 올림픽로 759 대덕빌딩,37.54904877,127.1267875,22시부터 다음날 아침 9시까지는 관리자 없이 무인운영,"주차 : 가능, 카페 : 있음",서울
535,커몬코믹플렉스,북카페,5241.0,서울특별시 강동구 올림픽로 781 우리들클리닉 지하1층,37.55101491,127.1275355,"매월 마지막 주 월요일은 환기, 청소 및 전체 소독을 위해 정기휴무","화장실 남녀구분 : 구분, 카페 : 있음",서울
536,놀숲 천호로데오점,만화방,5329.0,서울특별시 강동구 천호대로157길 37 2층 놀숲,37.5395984,127.1272669,편안한 좌석에서 맛있는 음식과 함께 책도 볼 수 있는 멀티 엔터테이먼트,"주차 : 가능, 화장실 남녀구분 : 구분, 카페 : 있음",서울
537,승룡이네집,복합공간,5383.0,서울특별시 강동구 천호대로168가길 65-29,37.53502864,127.1287321,독서활동 장소,카페 : 있음,서울
538,놀숲 수유점,만화방,1073.0,서울특별시 강북구 노해로8길 22,37.63800544,127.0242252,"일상에 즐거운 경험을 더하는 문화공간 카툰앤북카페, 편안한 좌석에서 맛있는 음식과 함께 책도 볼 수 있는 멀티 엔터테인먼트","화장실 남녀구분 : 구분, 카페 : 있음",서울
539,역사전문서점 물음,일반서점,1135.0,서울특별시 강북구 덕릉로 166-1,37.63515141,127.0323322,"목요일은 오후4시까지 영업. 역사전문 서점, 북카페","화장실 남녀구분 : 구분, 카페 : 있음, 리뷰여부 : 있음",서울
540,알라딘중고서점 COFFEE 수유점,일반서점,1063.0,서울특별시 강북구 도봉로 342,37.63803564,127.0261292,중고서점,"카페 : 있음, 헌책방 : 있음",서울
541,놀숲 미아사거리점,만화방,1220.0,서울특별시 강북구 도봉로 40 8층,37.61259451,127.0304355,"일상에 즐거운 경험을 더하는 문화공간 카툰앤북카페, 편안한 좌석에서 맛있는 음식과 함께 책도 볼 수 있는 멀티 엔터테인먼트","화장실 남녀구분 : 구분, 카페 : 있음",서울
542,징검다리북까페,카페,1043.0,서울특별시 강북구 삼각산로 155 (수유동) 1층,37.64181893,127.0210895,독서활동 장소,"카페 : 있음, 리뷰여부 : 있음",서울
543,꿈꾸는 타자기,북카페,1205.0,서울특별시 강북구 솔샘로68길 16,37.61638848,127.0288387,책 보드게임 퍼즐 그리고 고양이 다섯마리가 살고 있음,카페 : 있음,서울
544,카페브러리,북카페,1062.0,서울특별시 강북구 오패산로77길 8,37.63721514,127.0260593,독서활동 장소,카페 : 있음,서울
545,카페스케치북,카페,1058.0,서울특별시 강북구 한천로 1010,37.63863676,127.0293549,-,"카페 : 있음, 리뷰여부 : 있음",서울
546,커피베이 강북수유점,카페,1043.0,서울특별시 강북구 한천로 1095,37.64340697,127.0217721,독서활동 장소,카페 : 있음,서울
547,로브빈스커피,북카페,7715.0,서울특별시 강서구 강서로 161-10,37.54111962,126.8400088,"비료, 살충제등을 덜 사용하면서 동 식물의 안식처를 그대로 보존하며 태양으로 인한 커피나무의 스트레스를 덜어 생산한 원두 사용",카페 : 있음,서울
548,더하늘꿈북카페,북카페,7639.0,서울특별시 강서구 강서로45라길 28,37.54903435,126.8341697,독서활동 장소,카페 : 있음,서울
549,발음북카페,북카페,7638.0,서울특별시 강서구 강서로47다길 35,37.55132799,126.8343121,독서활동 장소,카페 : 있음,서울
550,나무곁에 서서,독립서점,7529.0,서울특별시 강서구 강서로76길 19 1층,37.56934057,126.8426262,"목, 금 오후2시~오후7시 영업. 숲, 생태, 환경, 교육을 이야기하는 공간",카페 : 있음,서울
551,더플롯커피,북카페,7572.0,서울특별시 강서구 공항대로45길 7,37.55591815,126.8542053,독서활동 장소,"카페 : 있음, 리뷰여부 : 있음",서울
552,다빈,북카페,7810.0,서울특별시 강서구 마곡서로 168 럭스나인 오피스텔 L동 2층,37.5689636,126.8255406,차 한잔을 통해 누군가와 더 깊은 관계를 이룰 수 있는 작은공간,"주차 : 가능, 화장실 남녀구분 : 구분, 카페 : 있음",서울
553,놀숲 마곡발산점,만화방,7803.0,서울특별시 강서구 마곡중앙6로 93 열린프라자,37.56013511,126.8376977,"일상에 즐거운 경험을 더하는 문화공간 카툰앤북카페, 편안한 좌석에서 맛있는 음식과 함께 책도 볼 수 있는 멀티 엔터테인먼트","화장실 남녀구분 : 구분, 카페 : 있음",서울
554,글벗누리작은도서관,북카페,7597.0,서울특별시 강서구 방화대로 330,37.57034125,126.8170501,독서활동 장소,"카페 : 있음, 리뷰여부 : 있음",서울
555,다시서점,독립서점,7605.0,서울특별시 강서구 방화대로33길 13 1층,37.56841625,126.8157874,"시집과 시인의 산문류, 텍스트 위주의 독림출판물 판매",카페 : 있음,서울
556,예인,북카페,7595.0,서울특별시 강서구 방화대로34길 120 신안빌라 상가동 2층 1호,37.57085168,126.8241131,독서활동 장소,"카페 : 있음, 리뷰여부 : 있음",서울
557,더플롯커피 2호점,북카페,7548.0,서울특별시 강서구 양천로 510 현대프린스텔,37.56011545,126.8563387,독서활동 장소,"카페 : 있음, 리뷰여부 : 있음",서울
558,놀숲 사당역점,만화방,8807.0,서울특별시 관악구 과천대로 941 6층,37.47467188,126.9813998,"일상에 즐거운 경험을 더하는 문화공간 카툰앤북카페, 편안한 좌석에서 맛있는 음식과 함께 책도 볼 수 있는 멀티 엔터테인먼트","화장실 남녀구분 : 구분, 카페 : 있음",서울
559,놀숲 서울대입구역점,만화방,8787.0,서울특별시 관악구 관악로 155,37.47916923,126.9520845,"일상에 즐거운 경험을 더하는 문화공간 카툰앤북카페, 편안한 좌석에서 맛있는 음식과 함께 책도 볼 수 있는 멀티 엔터테인먼트","화장실 남녀구분 : 구분, 카페 : 있음",서울
560,세상과연애하기,북카페,8788.0,서울특별시 관악구 관악로14길 14 2층,37.47908135,126.9532925,서울대입구 근처 작고 따뜻한 분위기의 북카페,카페 : 있음,서울
561,카페몽실,북카페,8860.0,서울특별시 관악구 난곡로 98,37.46407457,126.9194582,"출판사인 몽실북스에서 운영하고 있으며, 더치와 아메리카노가 맛있고 조용히 책 읽기에 좋음","주차 : 가능, 화장실 남녀구분 : 구분, 카페 : 있음",서울
562,책이는당나귀,일반서점,8710.0,서울특별시 관악구 당곡6길 6,37.49148825,126.9280235,브레이크 15-17시(토제외) 큐레이션 동네책방,카페 : 있음,서울
563,고지트,북카페,8813.0,서울특별시 관악구 신림로 107 2층,37.47052375,126.9373916,고양이와 책이 있는 공간 고지트,"주차 : 가능, 화장실 남녀구분 : 구분, 카페 : 있음",서울
564,재론북스,독립서점,8777.0,서울특별시 관악구 신림로 318 1층 101호 재론북스,37.4825745,126.9302525,독립출판물과 북큐레이션 서점. 쌍화차 대추차 커피 등 판매,"주차 : 가능, 화장실 남녀구분 : 구분, 카페 : 있음",서울
565,놀숲 신림역점,만화방,8776.0,서울특별시 관악구 신림로 321,37.48289784,126.9295467,"일상에 즐거운 경험을 더하는 문화공간 카툰앤북카페, 편안한 좌석에서 맛있는 음식과 함께 책도 볼 수 있는 멀티 엔터테인먼트","화장실 남녀구분 : 구분, 카페 : 있음",서울
566,영풍문고 신림 포도몰점,일반서점,8777.0,서울특별시 관악구 신림로 330 포도몰 7층,37.48385209,126.9302351,금요일은 토요일 영업시간과 같음. 다양한 국내외도서 취급,"주차 : 가능, 카페 : 있음",서울
567,관객의 취향,독립서점,8752.0,"서울특별시 관악구 양녕로 19 1층,2층",37.48385258,126.9464535,독립출판물 주로 취급,카페 : 있음,서울
568,달리봄,북카페,8745.0,서울특별시 관악구 중앙길 27,37.48400127,126.9529689,페미니즘 서적과 함께 다양한 여성의 이야기를 모아 소개,"주차 : 가능, 카페 : 있음",서울
569,허스토리,일반서점,8745.0,서울특별시 관악구 중앙길 27,37.48400127,126.9529689,-,"카페 : 있음, 리뷰여부 : 있음",서울
570,자상한시간,북카페,8746.0,서울특별시 관악구 중앙길 59 1층,37.4848378,126.9516217,자상한 시간을 찾는 벗들에게 책과 커뮤니티 모임을 통해 행복이 자라나는 편안하고 따뜻한 공간을 제공,"화장실 남녀구분 : 구분, 카페 : 있음",서울
571,하얀정원,독립서점,8740.0,서울특별시 관악구 행운1길 40 1층,37.48065273,126.9573874,"헌 책과 새 책, 예술을 사랑하는 사람들의 놀이공간이자 아지트",카페 : 있음,서울
572,Cafe&Meal 치포리,카페,8812.0,"서울특별시 관악구 호암로24길 17 1, 2층",37.46996018,126.9342682,사회적기업 안테나에서 운영하는 다양한 사람들이 기부한 책을 함께 공유하고 누구나 편하게들러 쉬어갈 수 있는 커뮤니티 공간,"화장실 남녀구분 : 구분, 카페 : 있음",서울
573,책방열음,일반서점,4967.0,서울특별시 광진구 광장로 59-1 1층,37.54739229,127.1035652,다양한 종류의 국내외 도서와 카페,"주차 : 가능, 카페 : 있음",서울
574,장신대구내서점,북카페,4965.0,서울특별시 광진구 광장로5길 25-1,37.54975194,127.1030015,독서활동 장소,카페 : 있음,서울
575,생산적헛소리,독립서점,5009.0,서울특별시 광진구 능동로19길 5 지하,37.54688529,127.0734858,모임과 인문/문화/예술 관련 프로그램을 만들어 운영,카페 : 있음,서울
576,커피인더카툰,북카페,5019.0,서울특별시 광진구 동일로22길 64 2층,37.54147172,127.0676757,16000권 이상의 책들과 한끼식사가 가능한 음식들과 간식들과 따뜻한 베이커리와 음료가 함께 있는 공간,"화장실 남녀구분 : 구분, 카페 : 있음",서울
577,북카페그루터기,북카페,4905.0,서울특별시 광진구 동일로76가길 28 중곡제3동주민센터,37.56880629,127.0801374,-,"카페 : 있음, 리뷰여부 : 있음",서울
578,인덱스,일반서점,5071.0,서울특별시 광진구 아차산로 200 커먼그라운드 3F,37.54105424,127.0656675,건대 커먼그라운드 안에 있는 숍인숍 서점,카페 : 있음,서울
579,놀숲 건대점,만화방,5073.0,서울특별시 광진구 아차산로 224 3층 놀숲건대점,37.5405742,127.0680827,"일상에 즐거운 경험을 더하는 문화공간 카툰앤북카페, 편안한 좌석에서 맛있는 음식과 함께 책도 볼 수 있는 멀티 엔터테인먼트","화장실 남녀구분 : 구분, 카페 : 있음",서울
580,그랜드 워커힐 서울 라이브러리,북카페,4963.0,서울특별시 광진구 워커힐로 177 그랜드 워커힐 서울 2층,37.55523742,127.1110229,"3000여 권의 도서가 비치, 편안한 분위기 속에 책을 읽으며 힐링을 할 수 있는 공간, 무인운영","주차 : 가능, 화장실 남녀구분 : 구분, 카페 : 있음",서울
581,가린열북카페,카페,8337.0,서울특별시 구로구 개봉로17길 12,37.49177323,126.8551412,독서활동 장소,카페 : 있음,서울
582,꿈꾸는 달팽이,북카페,8268.0,서울특별시 구로구 경인로19길 48-8,37.49742718,126.8427177,독서활동 장소,"주차 : 가능, 카페 : 있음",서울
583,놀숲 고척점,만화방,8223.0,서울특별시 구로구 경인로47길 113 2층,37.50363856,126.8634877,"일상에 즐거운 경험을 더하는 문화공간 카툰앤북카페, 편안한 좌석에서 맛있는 음식과 함께 책도 볼 수 있는 멀티 엔터테인먼트","화장실 남녀구분 : 구분, 카페 : 있음",서울
584,인공위성,독립서점,8283.0,서울특별시 구로구 구로중앙로27가길 32 1층,37.497604,126.8864845,기부도서로 구성되는 질문서점,카페 : 있음,서울
585,곁애,북카페,8323.0,서울특별시 구로구 구일로10길 53 현대아파트,37.49605479,126.8744434,문학을 기반으로하는 예술공간,"주차 : 가능, 카페 : 있음",서울
586,구로구다문화북카페,북카페,8281.0,서울특별시 구로구 벚꽃로 484,37.49732865,126.8801331,독서활동 장소,카페 : 있음,서울
587,카페화음,북카페,8261.0,서울특별시 구로구 부일로1길 62 온수골사랑터 1층 카페 화음,37.4932867,126.8190653,"온수동 주민들이 함께 운영하는 카페, 아이들과 함께 이용할 수 있는 사랑터","주차 : 가능, 화장실 남녀구분 : 구분, 카페 : 있음",서울
588,배고픈사자,북카페,8343.0,서울특별시 구로구 오류로 54-3,37.48984639,126.8402184,키즈북카페,"화장실 남녀구분 : 구분, 카페 : 있음",서울
589,카페시우,북카페,8546.0,서울특별시 금천구 독산로85길 15-1,37.47224075,126.9022567,독서활동 장소,카페 : 있음,서울
590,동네책방 원테이블,일반서점,8649.0,서울특별시 금천구 독산로8길 14,37.44935309,126.906304,무료로 읽을 수 있는 도서 및 보드게임 보유. 도서 주문 및 구매 가능,카페 : 있음,서울
591,카페 베르데,카페,1898.0,서울특별시 노원구 광운로 17-3,37.61929619,127.0575923,"1층뿐만 아니라 지하 1층의 넓은 공간에 많은 자리, 스터디나 과모임 황동에 최적",카페 : 있음,서울
592,놀숲 수락산역점,만화방,1604.0,서울특별시 노원구 동일로 1689 하이베라스 2층,37.67912042,127.0549508,"일상에 즐거운 경험을 더하는 문화공간 카툰앤북카페, 편안한 좌석에서 맛있는 음식과 함께 책도 볼 수 있는 멀티 엔터테인먼트","화장실 남녀구분 : 구분, 카페 : 있음",서울
593,책인감,일반서점,1846.0,서울특별시 노원구 동일로182길 63-1 2층,37.62358983,127.0775411,동네책방이자 카페,카페 : 있음,서울
594,놀숲 노원역점,만화방,1694.0,서울특별시 노원구 상계로 59 2층,37.65616099,127.061516,"일상에 즐거운 경험을 더하는 문화공간 카툰앤북카페, 편안한 좌석에서 맛있는 음식과 함께 책도 볼 수 있는 멀티 엔터테인먼트","화장실 남녀구분 : 구분, 카페 : 있음",서울
595,놀숲 중계은행사거리점,만화방,1743.0,서울특별시 노원구 한글비석로 231 지하1층,37.64821336,127.0763149,"일상에 즐거운 경험을 더하는 문화공간 카툰앤북카페, 편안한 좌석에서 맛있는 음식과 함께 책도 볼 수 있는 멀티 엔터테인먼트","화장실 남녀구분 : 구분, 카페 : 있음",서울
596,도봉북카페,북카페,1485.0,서울특별시 도봉구 덕릉로 315,37.64422452,127.0438592,-,"카페 : 있음, 리뷰여부 : 있음",서울
597,헤이제이,북카페,1426.0,서울특별시 도봉구 도봉로 566,37.6553466,127.0391154,-,카페 : 있음,서울
598,7월1일,북카페,1309.0,서울특별시 도봉구 도봉로157길 11 1층,37.67344507,127.0433913,"핸드드립 커피메이커만을 사용, 집에서 남아도는 책 기부 받음, 전자책 만들어드림","주차 : 가능, 카페 : 있음",서울
599,창포원북카페비비다이어리,카페,1318.0,서울특별시 도봉구 마들로 916 방문자센타 2층,37.68953937,127.0471617,독서활동 장소,카페 : 있음,서울
600,북카페,북카페,2565.0,서울특별시 동대문구 고산자로28길 13 (용두동) 2층,37.5753223,127.0391724,독서활동 장소,"카페 : 있음, 리뷰여부 : 있음",서울
601,카툰 & 북카페 아지트,만화방,2499.0,서울특별시 동대문구 망우로18가길 3,37.58931415,127.0624493,"시립대 주변 아늑한 만화카페, 연인들 데이트 코스","주차 : 가능, 화장실 남녀구분 : 구분, 카페 : 있음",서울
602,카페다니엘,북카페,2474.0,서울특별시 동대문구 안암로 122,37.58609764,127.0327787,독서활동 장소,"카페 : 있음, 리뷰여부 : 있음",서울
603,동네책방,북카페,2578.0,서울특별시 동대문구 안암로6길 19 1층,37.57915463,127.0259208,"다양한 사람들이 모여 스스로 배우고, 서로를 살리며, 도시 속에서 이웃과 함께 즐겁게 살아가는 방식을 실험해가는 창의적 공유지","주차 : 가능, 화장실 남녀구분 : 구분, 카페 : 있음",서울
604,이문일공칠,일반서점,2450.0,서울특별시 동대문구 이문로 107 한국외대 교수회관 1층,37.5979456,127.056986,"지역 대학, 기관 연계 지식, 교양, 창업, 전시, 공연 등의 프로그램을 운영","화장실 남녀구분 : 구분, 카페 : 있음",서울
605,장안벚꽃길,북카페,2637.0,서울특별시 동대문구 장한로26길 85,37.57146861,127.0763544,독서활동 장소,카페 : 있음,서울
606,놀숲 외대후문점,만화방,2449.0,서울특별시 동대문구 천장산로7길 4 2층,37.59871945,127.0575485,"일상에 즐거운 경험을 더하는 문화공간 카툰앤북카페, 편안한 좌석에서 맛있는 음식과 함께 책도 볼 수 있는 멀티 엔터테인먼트","화장실 남녀구분 : 구분, 카페 : 있음",서울
607,다누리북카페,북카페,2597.0,서울특별시 동대문구 천호대로65길 17 답십리청소년독서실,37.57099235,127.0490546,독서활동 장소,카페 : 있음,서울
608,너나들이 만화카페,북카페,2454.0,서울특별시 동대문구 회기로13길 19 지층 너나들이 만화카페,37.59230605,127.0508757,만화카페,"주차 : 가능, 화장실 남녀구분 : 구분, 카페 : 있음",서울
609,놀숲 경희대점,만화방,2454.0,서울특별시 동대문구 회기로13길 6 지층,37.59172425,127.0510711,"일상에 즐거운 경험을 더하는 문화공간 카툰앤북카페, 편안한 좌석에서 맛있는 음식과 함께 책도 볼 수 있는 멀티 엔터테인먼트","화장실 남녀구분 : 구분, 카페 : 있음",서울
610,놀숲 노량진점,만화방,6913.0,서울특별시 동작구 노량진로 176 B1,37.51345539,126.9454987,"일상에 즐거운 경험을 더하는 문화공간 카툰앤북카페, 편안한 좌석에서 맛있는 음식과 함께 책도 볼 수 있는 멀티 엔터테인먼트","화장실 남녀구분 : 구분, 카페 : 있음",서울
611,놀숲 이수역점,만화방,7008.0,서울특별시 동작구 동작대로27길 5 지안플라자 지하1층,37.48735785,126.9814938,"일상에 즐거운 경험을 더하는 문화공간 카툰앤북카페, 편안한 좌석에서 맛있는 음식과 함께 책도 볼 수 있는 멀티 엔터테인먼트","화장실 남녀구분 : 구분, 카페 : 있음",서울
612,지금의 세상,일반서점,7025.0,서울특별시 동작구 동작대로3길 41 1층,37.47867443,126.9791992,인스타 오픈 시간 확인. 마음을 어루만져줄 책들 준비,카페 : 있음,서울
613,M&H Books,북카페,7015.0,서울특별시 동작구 동작대로3길 6,37.47850715,126.9811295,독서활동 장소,카페 : 있음,서울
614,놀숲 보라매점,만화방,7071.0,서울특별시 동작구 보라매로5가길 16 6층,37.49127429,126.9240942,"일상에 즐거운 경험을 더하는 문화공간 카툰앤북카페, 편안한 좌석에서 맛있는 음식과 함께 책도 볼 수 있는 멀티 엔터테인먼트","화장실 남녀구분 : 구분, 카페 : 있음",서울
615,쉼표 만화카페,북카페,7008.0,서울특별시 동작구 사당로 295 b1,37.48508111,126.9802837,"이색데이트공간 만화카페, 3만 6천권 도서 보유, 100평 규모의 넓이","화장실 남녀구분 : 구분, 카페 : 있음",서울
616,쉼표숭실대점,북카페,7027.0,서울특별시 동작구 사당로 4,37.49540648,126.9548541,만화카페,카페 : 있음,서울
617,리네스카페,카페,7025.0,서울특별시 동작구 사당로26길 111 리네스카페,37.4788363,126.9780946,"바쁜 현대인들이 편안히 쉴 수 있는, 힐링을 할 수 있는 공간, 베이커리를 즐길 수 있고 북카페의 특성상 책도 즐겁게 감상할 수 있음",카페 : 있음,서울
618,와인톡,북카페,7032.0,서울특별시 동작구 상도로 282,37.50219062,126.948117,-,카페 : 있음,서울
619,상도중앙작은도서관북카페,북카페,6951.0,서울특별시 동작구 상도로15길 47 1층,37.50277978,126.9342894,-,"카페 : 있음, 리뷰여부 : 있음",서울
620,대륙서점,일반서점,7044.0,서울특별시 동작구 성대로 40 1층대륙서점,37.49894199,126.9332924,"다양한 국내외도서 취급, 간단한음료들과 각종 문화행사 개최","주차 : 가능, 카페 : 있음",서울
621,오누이,카페,7068.0,서울특별시 동작구 시흥대로 676 혜석빌딩,37.49170078,126.9091576,"품격있는 박물관의 컨셉, 대리석 마감으로 은은하고 고급스러운 분위기에 그림들과 책들이 공간을 한층 더 꾸며줌","주차 : 가능, 카페 : 있음",서울
622,데어이즈북스,일반서점,4171.0,서울특별시 마포구 도화2길 27 3층 - 4층,37.53953108,126.9494717,"도시생활자를 위한 인문책방, 그림책방","화장실 남녀구분 : 구분, 카페 : 있음",서울
623,로뎀나무밑,북카페,4087.0,서울특별시 마포구 독막로 176,37.5356578,126.9442619,도심 속 숲에서 즐기는 커피와 맥주를 동시 즐길 수 있는 공간,카페 : 있음,서울
624,이루리북스,아동서점,4157.0,서울특별시 마포구 독막로 320 태영데시앙루브 B105호,37.54296432,126.9478732,아동그림책 전문점,"주차 : 가능, 화장실 남녀구분 : 구분, 카페 : 있음",서울
625,책과 밤 낮,일반서점,4073.0,서울특별시 마포구 독막로 54 2층 책과 밤 낮,37.54771884,126.9192205,북카페 겸 와인바,"화장실 남녀구분 : 구분, 카페 : 있음",서울
626,문학살롱 초고,카페,4071.0,서울특별시 마포구 독막로2길 30,37.55507871,126.9188188,여러 분야의 창작자들이 운영하는 '서점X칵테일바',카페 : 있음,서울
627,카페투니온,북카페,4047.0,서울특별시 마포구 독막로3길 28-17,37.56502844,126.9172022,"스타 웹툰 작가님 들의 북토크쇼 및 팬미팅, 강좌, 대담 등의 행사 동영상을 발송",카페 : 있음,서울
628,다산북살롱,카페,4044.0,서울특별시 마포구 독막로3길 39 2층 다산빌딩 2층 다산북살롱,37.54726979,126.9142755,"다산북스가 운영하는 콘텐츠 카페, 독서, 공부, 모임, 세미나, 워크숍 및 책과 관련된 모든 활동이 이루어지는 곳","화장실 남녀구분 : 구분, 카페 : 있음",서울
629,서사 당신의 서재,일반서점,4029.0,서울특별시 마포구 동교로12길 3 2층,37.56182635,126.9158203,"서재를 컨셉으로 만든 카페, 또한 삶의 맥락, 브랜드 경험, 생각의 발견이라는 주제를 선정하여 독서모임 실행",카페 : 있음,서울
630,번역가의 서재,일반서점,3998.0,서울특별시 마포구 동교로17길 67 101호,37.55763878,126.9142557,양질의 번역서와 해외 출판물을 소개하는 동네 책방,카페 : 있음,서울
631,카페 스케치북,카페,4030.0,"서울특별시 마포구 동교로22길 14 1층, 2층",37.56093518,126.9257218,"독서활동 장소, 브런치를 즐길 수 있음",카페 : 있음,서울
632,공상온도,일반서점,3992.0,서울특별시 마포구 동교로23길 40 지하,37.5576445,126.9197902,"금, 토는 정오~자정 영업. 복합 문화 공간",카페 : 있음,서울
633,북카페산책 고용플러스점,북카페,4157.0,서울특별시 마포구 마포대로 63-8 삼창주택 4층,37.5356578,126.9442619,고용보험센터 내 카페,"카페 : 있음, 리뷰여부 : 있음",서울
634,테이스티,북카페,4178.0,서울특별시 마포구 마포대로4다길 31,37.55376837,126.9299006,독서활동 장소,카페 : 있음,서울
635,공간 산마루,카페,4187.0,서울특별시 마포구 만리재로 74 신공덕2차 삼성래미안 상가1층,37.55280031,126.9144282,"건강한 음료와 책, 그리고 공간제공을 통해 다양한 소규모 클래스, 모임, 플리마켓, 전시, 여러 지원프로그램등을 기획","주차 : 가능, 화장실 남녀구분 : 구분, 카페 : 있음",서울
636,카페홈즈,북카페,3964.0,서울특별시 마포구 망원로 73 2층,37.55730477,126.9298574,독서활동 장소,카페 : 있음,서울
637,북카페산책 상암점,북카페,3911.0,서울특별시 마포구 매봉산로 18 창업복지관 1층,37.57417458,126.8899464,독서활동 장소,카페 : 있음,서울
638,북카페산책 산학협력센터점,북카페,3909.0,서울특별시 마포구 매봉산로 37 산학협력센터 1층,37.5669186,126.9018209,독서활동 장소,카페 : 있음,서울
639,산책3호점,북카페,3909.0,서울특별시 마포구 매봉산로 37,37.57711177,126.8873333,독서활동 장소,카페 : 있음,서울
640,커피랑도서관 서강대점,스터디카페,4109.0,서울특별시 마포구 백범로 28 제2서강빌딩 B1,37.55164147,126.9186268,"2000여권의 도서 보유 및 대여 가능, 이용시간내 핸드드립 외 각종차 무료 제공, 사물함 이용가능","주차 : 가능, 화장실 남녀구분 : 구분, 카페 : 있음",서울
641,허부북카페,북카페,3905.0,서울특별시 마포구 상암산로1길 15,37.57711177,126.8873333,독서활동 장소,"카페 : 있음, 리뷰여부 : 있음",서울
642,산책,북카페,3974.0,서울특별시 마포구 성미산로17길 79 서울공공주택연남동희망원룸,37.56177197,126.9155419,-,카페 : 있음,서울
643,서점 리스본,독립서점,3979.0,서울특별시 마포구 성미산로23길 60,37.56608962,126.9200531,"생일책, 비밀책 등 다양한 테마가 있는 서점",카페 : 있음,서울
644,연남동 끄트머리,일반서점,3979.0,서울특별시 마포구 성미산로23길 74,37.56633028,126.9197666,"전시, 원데이클래스 진행",카페 : 있음,서울
645,책방 곱셈,독립서점,3979.0,서울특별시 마포구 성미산로29길 33 1층,37.56533056,126.9217846,출판관계자 및 디자이너 영감 도서,카페 : 있음,서울
646,사이에,일반서점,3980.0,서울특별시 마포구 성미산로31길 13 2층,37.56462575,126.9255188,여행 전문 서점,카페 : 있음,서울
647,동네책방개똥이네책놀이터,일반서점,3969.0,서울특별시 마포구 성미산로3나길 16,37.56020031,126.9086724,아이와 부모가 함께 책 읽는 문화를 만들고자 함,카페 : 있음,서울
648,디벙크,카페,4072.0,서울특별시 마포구 성지1길 30 더보이드빌딩 지하1층,37.56084873,126.9227807,"문화와 예술의 공간, 따뜻한 휴식의 공간, 좋은사람들이 만나 멋진 이야기와 생각을 나누는 공간","화장실 남녀구분 : 구분, 카페 : 있음",서울
649,단편집,북카페,4056.0,서울특별시 마포구 신촌로4길 5-25,37.56291194,126.9209821,독서활동 장소,"화장실 남녀구분 : 구분, 카페 : 있음",서울
650,에디토리얼카페비플러스,북카페,4043.0,서울특별시 마포구 양화로12길 16-12 찬홍,37.54565625,126.9227224,"합정북카페, 비플러스만의 커피와 음료, 핸드메이드 디저트, 특별하고 진한 밀크티, 세계맥주","주차 : 가능, 카페 : 있음",서울
651,놀숲플러스 홍대점,만화방,4039.0,서울특별시 마포구 양화로16길 29 B1,37.55344175,126.9557117,"24시간을 운영하는 프리미엄 복합문화공간, 150평 규모의 공간 기획과 편의시설을 구비","화장실 남녀구분 : 구분, 카페 : 있음",서울
652,카페 본주르,카페,3994.0,서울특별시 마포구 양화로21길 23 2층,37.55003652,126.9173805,"동료 예술가들이 함께 모여 만든 카페 & 아트샵""",카페 : 있음,서울
653,땡스북스,일반서점,4047.0,서울특별시 마포구 양화로6길 57-6,37.54885813,126.9176876,큐레이션 서점,"화장실 남녀구분 : 구분, 카페 : 있음",서울
654,청춘124 R&D센터,카페,4035.0,서울특별시 마포구 양화로7길 44-7 1층 청춘124 개발실,37.55385098,126.9227859,"1년 12달, 4계절 맛있는 커피와 음료를 제공, 메뉴의 연구 및 개발 센터로 개발메뉴 시음 및 다양한 이벤트 제공",카페 : 있음,서울
655,이마녀 중국어 수프,일반서점,4047.0,서울특별시 마포구 어울마당로5길 52 2층,37.55007707,126.9179642,"중국원서, 중국과 관련된 다양한 도서를 판매하는 중국 전문 서점",카페 : 있음,서울
656,카페책속의한줄,북카페,3988.0,서울특별시 마포구 연남로3길 22-15,37.54724873,126.9330429,독서활동 장소,카페 : 있음,서울
657,산책경의선숲길,카페,3982.0,서울특별시 마포구 연희로1길 43 1층 101호,37.5568502,126.9089033,독서활동 장소,카페 : 있음,서울
658,도화서가 홍대점,북카페,4054.0,서울특별시 마포구 와우산로 111 3층,37.54791169,126.9151216,"음료를 마시며, 그림을 그리고, 책을 보며 이야기와 사랑이 싹트는 공간","주차 : 가능, 화장실 남녀구분 : 구분, 카페 : 있음",서울
659,만화살롱 유어마나,북카페,4049.0,서울특별시 마포구 와우산로 13 B1,37.55206271,126.9369738,"복합만화공간, 풍미 가득한 커피와 부드럽고 달콤한 쿠키, 수제 맥주를 즐길 수 있음""",카페 : 있음,서울
660,딩굴딩굴,북카페,4052.0,서울특별시 마포구 와우산로 151,37.55549237,126.9259935,"홍대에서 가장 넓고 가장 편안한 굴이 50개, 40000권의 만화책, 부담없이 즐길 수 있는 카페 메뉴들","화장실 남녀구분 : 구분, 카페 : 있음",서울
661,gaga77page,일반서점,4049.0,서울특별시 마포구 와우산로15길 50 2층,37.54873387,126.9208468,북토크와 공연 맥주와 커피 그리고 책,카페 : 있음,서울
662,북카페 리벤,북카페,4054.0,서울특별시 마포구 와우산로23길 18-8,37.5669186,126.9018209,카톨릭계열 카페,카페 : 있음,서울
663,대화상점,북카페,4053.0,서울특별시 마포구 와우산로29길 45 성암빌딩 지하1층,37.56028733,126.9012179,"사람과 사람 사이의 대화를 만드는 독서 커뮤니티, 매달 다양한 컨셉의 북클럽이 열리며, 북클럽 이외의 시간에는 스터디룸, 파티룸 등의 대관장소로 운영",카페 : 있음,서울
664,청춘문화싸롱,북카페,4053.0,서울특별시 마포구 와우산로29바길 19 삼이빌딩,37.55411869,126.9124274,"앉아서 혹은 누워서 만화도 보고 때론 강연, 공연도 즐길 수 있음",카페 : 있음,서울
665,와우살롱,북카페,4060.0,서울특별시 마포구 와우산로30길 21 청암빌딩,37.55246425,126.9118623,독서활동 장소,카페 : 있음,서울
666,북카페산책 하늘도서관점,북카페,3937.0,서울특별시 마포구 월드컵로 212 마포구청 12층,37.57605274,126.8905999,독서활동 장소,"카페 : 있음, 리뷰여부 : 있음",서울
667,북카페산책 보건소점,북카페,3937.0,서울특별시 마포구 월드컵로 212 마포보건소 1층,37.54626483,126.9163401,보건소 내 북카페,"카페 : 있음, 리뷰여부 : 있음",서울
668,달빛에홀린두더지,북카페,4023.0,서울특별시 마포구 월드컵로 35,37.54976212,126.9177032,독서활동 장소,"카페 : 있음, 리뷰여부 : 있음",서울
669,교보문고 합정점,일반서점,4024.0,"서울특별시 마포구 월드컵로1길 14 딜라이트스퀘어 1차(지하 1층), 2차(지하 2층)",37.5500407,126.9120459,다양한 국내외도서 취급,"주차 : 가능, 화장실 남녀구분 : 구분, 카페 : 있음",서울
670,교보문고 합정점,일반서점,4024.0,"서울특별시 마포구 월드컵로1길 14 딜라이트스퀘어 1차(지하 1층), 2차(지하 2층)",37.5500407,126.9120459,다양한 국내외도서 취급,"주차 : 가능, 화장실 남녀구분 : 구분, 카페 : 있음",서울
671,초록북카페,북카페,3960.0,서울특별시 마포구 월드컵로31길 69,37.57417458,126.8899464,독서활동 장소,카페 : 있음,서울
672,러셀,북카페,3978.0,서울특별시 마포구 월드컵북로12길 17 사평빌딩,37.55346428,126.9257402,독서활동 장소,카페 : 있음,서울
673,삼삼오오커피공작소,북카페,3978.0,서울특별시 마포구 월드컵북로12길 20,37.56145585,126.9206778,"강의, 회의, 문화, 디자인, 교육, 모임등 공유를 할 수 있는공간, 편안함과 아늑한 분위기",카페 : 있음,서울
674,사사커피,카페,3923.0,서울특별시 마포구 월드컵북로56길 19 드림타워 1층 로비,37.55074916,126.9202449,직접 포스팅한 스페셜티한 커피,"화장실 남녀구분 : 구분, 카페 : 있음",서울
675,수수책방,독립서점,4085.0,서울특별시 마포구 토정로 8-7 1층,37.54538004,126.9117968,"책과 차. 전시회, 문화예술, 소모임 대관 등",카페 : 있음,서울
676,타인 나 자신,북카페,4083.0,서울특별시 마포구 토정로3길 5 3층,37.55751478,126.9050492,"책, 음악, 전시, 공연, 파티가 어우러진 문화살롱, 향기로운 차와 커피, 와인과 좋은 술 그리고 음식이 준비","주차 : 가능, 카페 : 있음",서울
677,놀숲 홍대입구점,만화방,4040.0,서울특별시 마포구 홍익로 17 5층,37.55554831,126.9275265,편안한 좌석에서 맛있는 음식과 함께 책도 볼 수 있는 멀티 엔터테이먼트,"화장실 남녀구분 : 구분, 카페 : 있음",서울
678,서울특별시의시간을그리다,일반서점,3734.0,서울특별시 서대문구 독립문로 31-6,37.56942645,126.9615606,한옥책방카페. 아트북과 일반서적,카페 : 있음,서울
679,놀숲 신촌점,만화방,3776.0,서울특별시 서대문구 명물길 37 SD TOWER Ⅱ,37.5585795,126.9381766,가족/친구/인연과 함께 놀러와서 편안한 휴식을 즐길 수 있는 문화공간,"주차 : 가능, 화장실 남녀구분 : 구분, 카페 : 있음",서울
680,커피똥,북카페,3672.0,서울특별시 서대문구 명지대7길 22,37.58400969,126.9220512,독서활동 장소,카페 : 있음,서울
681,새솔북카페,북카페,3761.0,서울특별시 서대문구 북아현로19길 58-21,37.5638977,126.9506818,-,"카페 : 있음, 리뷰여부 : 있음",서울
682,카페지느,북카페,3727.0,서울특별시 서대문구 성산로22길 4 창천빌딩,37.56039057,126.933329,간단하게 편히 쉴 수 있는 부담 적은 카페,카페 : 있음,서울
683,바로서점,일반서점,3623.0,서울특별시 서대문구 세검정로3길 56-9,37.59338577,126.9474016,화요일 부정기 영업. 국내외도서 및 카페,카페 : 있음,서울
684,미플,북카페,3797.0,서울특별시 서대문구 신촌로 109 신촌 르메이에르타운5 B2,37.55588886,126.9381508,"하루 4000원으로 오전 9시~밤12시까지 공부가능, 신촌역에서 최단거리(1분)","주차 : 가능, 화장실 남녀구분 : 구분, 카페 : 있음",서울
685,위트 앤 시니컬,일반서점,3766.0,서울특별시 서대문구 신촌역로 22-8 대국빌딩 3층,37.55883973,126.9433378,함께 있는 프렌테에서는 각종 독립출판물 등 취급. 위트앤시니컬은 시 전문,"주차 : 가능, 카페 : 있음",서울
686,굿브라더스페이스 신촌센터,북카페,3787.0,서울특별시 서대문구 신촌역로 7,37.5573528,126.9425002,매우 넓은 스터디 공간. PPT에 용이한 전면 빔프로젝트 완비,"주차 : 가능, 화장실 남녀구분 : 구분, 카페 : 있음",서울
687,책다방 위숨,북카페,3787.0,서울특별시 서대문구 연세로9길 34-1 HJ 빌딩,37.55865608,126.9348451,"일하기 좋은 공부하기 좋은 몰입이 잘되는 공간, 2층과 3층 분리, 각 좌석마다 스텐드 및 콘센트 구비","주차 : 가능, 화장실 남녀구분 : 구분, 카페 : 있음",서울
688,일룸 엄마의서재,북카페,3723.0,서울특별시 서대문구 연희로 148 1층,37.57027591,126.9344601,"""엄마들이 서재와 친하게 지내면서 한동안 잊고 지냈던 여유와 재충전의 기쁨을 느낄 수 있는 곳,",카페 : 있음,서울
689,더 미디엄,북카페,3703.0,서울특별시 서대문구 연희로15길 27,37.56858908,126.9304367,독서활동 장소,카페 : 있음,서울
690,초콜릿책방,북카페,3716.0,서울특별시 서대문구 연희로5길 46-11,37.56555806,126.9268844,독서활동 장소,"주차 : 가능, 카페 : 있음",서울
691,스위밍풀,북카페,3766.0,서울특별시 서대문구 이화여대1길 38,37.55733238,126.9436545,편안한 분위기 속에서 공부도 하면서 여유를 즐길 수 있는 공간,"화장실 남녀구분 : 구분, 카페 : 있음",서울
692,스근한 책방,일반서점,3767.0,서울특별시 서대문구 이화여대2길 26 101호,37.55735325,126.9473994,독서모임 통해 접한 책들과 독립출간물을 소개. 영업시간 인스타그램 참조,"카페 : 있음, 헌책방 : 있음",서울
693,나따오비까 with 북카페 파오,카페,3767.0,서울특별시 서대문구 이화여대길 34 신흥빌딩 3층,37.55845397,126.9459452,크림No! 우유100% 포르투갈식 전통 에그타르트,카페 : 있음,서울
694,놀숲 이대점,만화방,3766.0,서울특별시 서대문구 이화여대길 75 이화타워 6층,37.55901411,126.944305,"커피만 즐길 수 있던 카페와는 다른 만화책도 보고, 맛있는 간식이 있는 문화카페","화장실 남녀구분 : 구분, 카페 : 있음",서울
695,꽃피다이화다방,카페,3766.0,서울특별시 서대문구 이화여대길 75,37.55901411,126.944305,독서활동 장소,카페 : 있음,서울
696,푸른북카페,북카페,3686.0,서울특별시 서대문구 증가로 191 남가좌삼성아파트,37.57757512,126.9160668,독서활동 장소,"카페 : 있음, 리뷰여부 : 있음",서울
697,꿈틀허브,북카페,3662.0,서울특별시 서대문구 증가로10길 90,37.58027308,126.9265586,독서활동 장소,카페 : 있음,서울
698,개러지레옹스,독립서점,6556.0,서울특별시 서초구 방배중앙로 170 지하1층,37.49428443,126.9863216,프랑스서점 프랑스 전문 서점,"주차 : 가능, 화장실 남녀구분 : 구분, 카페 : 있음",서울
699,영풍문고 사당역점,일반서점,6693.0,서울특별시 서초구 방배천로 11 사당파스텔시티 지하 2층,37.47770079,126.9822363,다양한 국내외도서 취급,카페 : 있음,서울
700,글풍경,카페,6693.0,서울특별시 서초구 방배천로2길 39-16,37.47735988,126.9846661,"도서출판과 커피와 와인 세계맥주를 마실 수 있는 카페, 책과 그림 음악이 아우러짐","주차 : 가능, 화장실 남녀구분 : 구분, 카페 : 있음",서울
701,라이크잇커피앤북스,카페,6570.0,서울특별시 서초구 방배천로30길 26 상은빌딩,37.48780993,126.9869761,"신선한 커피와 카페에서 구운 수제 케익을 만날 수 있음, 커피교실과 독서모임을 진행","주차 : 가능, 화장실 남녀구분 : 구분, 카페 : 있음",서울
702,놀숲 교대점,만화방,6640.0,서울특별시 서초구 사임당로 46 2층,37.4882857,127.0150688,"커피만 즐길 수 있던 카페와는 다른 만화책도 보고, 맛있는 간식이 있는 문화카페","화장실 남녀구분 : 구분, 카페 : 있음",서울
703,우리동네 서재,일반서점,6637.0,서울특별시 서초구 사임당로19길 6 서초현대아파트 상가동,37.49028594,127.0198217,서점 및 카페 공간,"주차 : 가능, 카페 : 있음",서울
704,심산북카페,북카페,6650.0,서울특별시 서초구 사평대로 55 심산김창숙선생기념관,37.49901914,126.9915852,독서활동 장소,카페 : 있음,서울
705,CAFE SKY & LIBRARY,카페,6577.0,"서울특별시 서초구 서래로 32 서래센타빌딩 4층 2호, 5층",37.49789398,126.9985447,"서래마을의 대로변 중심부에 위치, 서초구의 자연 공간인 우면산 산책로와 몽마르트 공원이 있음, 가급적 오래 앉아서 공부와 연구 및 미팅 작업에 몰두할 수 있도록 최대한의 서비스 제공","주차 : 가능, 화장실 남녀구분 : 구분, 카페 : 있음",서울
706,놀숲 강남교보타워점,만화방,6611.0,서울특별시 서초구 서초대로77길 58 트라이앤드빌딩 B1,37.5025719,127.0243845,"일상에 즐거운 경험을 더하는 문화공간 카툰앤북카페, 편안한 좌석에서 맛있는 음식과 함께 책도 볼 수 있는 멀티 엔터테인먼트","화장실 남녀구분 : 구분, 카페 : 있음",서울
707,반디앤루니스 신세계백화점 강남점 B1층,일반서점,6546.0,서울특별시 서초구 신반포로 176 신세계백화점 B1층,37.5042136,127.002794,다양한 국내외도서 취급,카페 : 있음,서울
708,사랑해북갤러리,북카페,6754.0,서울특별시 서초구 양재천로7길 16,37.47480337,127.0357719,독서활동 장소,카페 : 있음,서울
709,commeunbebe,키즈카페,4700.0,서울특별시 성동구 마장로 137 텐즈힐상가 2층 102호,37.56998145,127.0237304,"아이들을 위한 다양한 책들로 이용할 수 있는 키즈 북카페, 평일 오후 1/3/5와 토요일 11시는 키즈 쿠킹스쿨이 준비",카페 : 있음,서울
710,놀숲 한양대점,만화방,4760.0,서울특별시 성동구 마조로 11 3층,37.558936,127.0406638,"커피만 즐길 수 있던 카페와는 다른 만화책도 보고, 맛있는 간식이 있는 문화카페","화장실 남녀구분 : 구분, 카페 : 있음",서울
711,북카페 다온,북카페,4733.0,서울특별시 성동구 매봉길 21 4층,37.54583057,127.0153493,지역센터내 북카페,카페 : 있음,서울
712,영풍문고 왕십리역점,일반서점,4750.0,서울특별시 성동구 왕십리광장로 17 비트플렉스 3층,37.56144191,127.0383945,다양한 국내외도서 취급,카페 : 있음,서울
713,옥수서재,독립서점,4735.0,서울특별시 성동구 한림말1길 16-1 B1층,37.54272406,127.0164052,"역사, 문학, 예술, 어린이 책들 그리고 커피와 차",카페 : 있음,서울
714,베리북카페,북카페,4735.0,서울특별시 성동구 한림말길 53 지하 1층,37.54151128,127.0168212,"지식컨텐츠로 소통하는 에듀카페, 기즈북카페",카페 : 있음,서울
715,놀숲 고대안암역점,만화방,2842.0,서울특별시 성북구 개운사길 8 타이거빌딩,37.58698734,127.0295734,"일상에 즐거운 경험을 더하는 문화공간 카툰앤북카페, 편안한 좌석에서 맛있는 음식과 함께 책도 볼 수 있는 멀티 엔터테인먼트","화장실 남녀구분 : 구분, 카페 : 있음",서울
716,지식을담다,북카페,2856.0,서울특별시 성북구 고려대로24가길 17 소낭구,37.58532679,127.0304581,독서활동 장소,카페 : 있음,서울
717,카페인북,북카페,2725.0,서울특별시 성북구 길음로 14 2층,37.60444192,127.0236984,독서활동 장소,카페 : 있음,서울
718,원애플어데이,독립서점,2829.0,서울특별시 성북구 동소문로29길 10 1층,37.59636004,127.0202984,"독립 서적물 및 출판. 맥주, 커피","카페 : 있음, 리뷰여부 : 있음",서울
719,부비프,일반서점,2844.0,서울특별시 성북구 보문로30가길 31 1층,37.58926575,127.0215,독립출판물과 일반단행본 취급. 커피와 와인이 함께하는 책방,카페 : 있음,서울
720,소일,북카페,2849.0,서울특별시 성북구 보문로32길 40 한국야쿠르트,37.59003295,127.018434,"공정무역 커피를 사용하며, 소중한 일상 속의 만남과 문화가 어우러지는 공간",카페 : 있음,서울
721,놀숲 성신여대점,만화방,2849.0,서울특별시 성북구 보문로34길 62 4층,37.59083569,127.0188557,"일상에 즐거운 경험을 더하는 문화공간 카툰앤북카페, 편안한 좌석에서 맛있는 음식과 함께 책도 볼 수 있는 멀티 엔터테인먼트","화장실 남녀구분 : 구분, 카페 : 있음",서울
722,북앤카페,북카페,2863.0,서울특별시 성북구 삼선교로 54,37.58848901,127.011781,-,"카페 : 있음, 리뷰여부 : 있음",서울
723,일일문고,독립서점,2725.0,서울특별시 성북구 삼양로 27 1층,37.60559337,127.0239644,"독립출판물과 건축, 디자인 서적을 판매","화장실 남녀구분 : 구분, 카페 : 있음",서울
724,북카페리비,북카페,2741.0,서울특별시 성북구 오패산로16가길 99,37.61245523,127.0373882,신선한 샐러드와 100% 생과일 주스의 만남,"주차 : 가능, 카페 : 있음",서울
725,행복한카페,북카페,2736.0,서울특별시 성북구 오패산로3길 153,37.60973377,127.032667,독서활동 장소,카페 : 있음,서울
726,햇살속으로,카페,4721.0,서울특별시 성북구 정릉로 346 1층,37.60152811,127.0213946,독서활동 장소,카페 : 있음,서울
727,종암동북카페,북카페,2797.0,서울특별시 성북구 종암로 98-8,37.5990314,127.035222,주민센터내 북카페,카페 : 있음,서울
728,커피베이 성북종암점,카페,2803.0,서울특별시 성북구 종암로21길 87,37.60199857,127.0316753,독서활동 장소,카페 : 있음,서울
729,래미안 석관북카페,도서관,2790.0,서울특별시 성북구 화랑로 214,37.607833,127.0542132,독서활동 장소,"카페 : 있음, 리뷰여부 : 있음",서울
730,놀숲 문정로데오점,만화방,5804.0,서울특별시 송파구 동남로4길 7-1 201호,37.48941873,127.124108,"일상에 즐거운 경험을 더하는 문화공간 카툰앤북카페, 편안한 좌석에서 맛있는 음식과 함께 책도 볼 수 있는 멀티 엔터테인먼트",카페 : 있음,서울
731,놀숲 잠실점,만화방,5568.0,서울특별시 송파구 백제고분로 173 지하1층 놀숲,37.50512745,127.0861083,"일상에 즐거운 경험을 더하는 문화공간 카툰앤북카페, 편안한 좌석에서 맛있는 음식과 함께 책도 볼 수 있는 멀티 엔터테인먼트","화장실 남녀구분 : 구분, 카페 : 있음",서울
732,놀숲 송파점,만화방,5626.0,서울특별시 송파구 백제고분로 387,37.50650864,127.1085138,"일상에 즐거운 경험을 더하는 문화공간 카툰앤북카페, 편안한 좌석에서 맛있는 음식과 함께 책도 볼 수 있는 멀티 엔터테인먼트",카페 : 있음,서울
733,놀숲,만화방,5612.0,서울특별시 송파구 석촌호수로 194,37.50623858,127.0985741,만화카페,"카페 : 있음, 리뷰여부 : 있음",서울
734,놀숲 송파구청점,만화방,5542.0,서울특별시 송파구 오금로11길 11-8 2층,37.51498102,127.1087475,"일상에 즐거운 경험을 더하는 문화공간 카툰앤북카페, 편안한 좌석에서 맛있는 음식과 함께 책도 볼 수 있는 멀티 엔터테인먼트","주차 : 가능, 화장실 남녀구분 : 구분, 카페 : 있음",서울
735,카페자우,카페,5510.0,서울특별시 송파구 올림픽로 269 롯데캐슬골드 B1 교보문고 핫트랙스 내,37.51442767,127.1006116,독서활동 장소,카페 : 있음,서울
736,알라딘중고서점 COFFEE 잠실롯데월드타워점,일반서점,5510.0,서울특별시 송파구 올림픽로 305 지하1층 10번 출구 나가는 길,37.51497611,127.1042156,다양한 국내외 중고도서 취급,"화장실 남녀구분 : 구분, 카페 : 있음, 헌책방 : 있음",서울
737,놀숲 목동오목교점,만화방,7999.0,서울특별시 양천구 목동동로 258 지하1층,37.53990146,126.8685416,"일상에 즐거운 경험을 더하는 문화공간 카툰앤북카페, 편안한 좌석에서 맛있는 음식과 함께 책도 볼 수 있는 멀티 엔터테인먼트","주차 : 가능, 카페 : 있음",서울
738,집중소,독서실,7984.0,서울특별시 양천구 목동동로 401 부영그린타운 2차 1동 210호,37.52460448,126.8773291,집중을 위한 모든 배려가 있는곳,"주차 : 가능, 화장실 남녀구분 : 구분, 카페 : 있음",서울
739,사해책방,독립서점,7947.0,서울특별시 양천구 목동중앙북로 33-20,37.54238884,126.8695296,"다양한 국내외도서, 원데이클래스 소모임 등 공간 대여 가능, 카페",카페 : 있음,서울
740,연의공원북카페,북카페,8049.0,서울특별시 양천구 신정이펜1로 12,37.51169747,126.8342081,독서활동 장소,"카페 : 있음, 리뷰여부 : 있음",서울
741,은행정마을북카페,도서관,3923.0,서울특별시 양천구 오목로 110,37.52364872,126.8496732,양천구 지역 주민들이 누구나 쉽고 평등하게 지식과 정보를 자발적으로 나누고 소통하는 학습과 문화의 공간,카페 : 있음,서울
742,일상상상,독립서점,7934.0,서울특별시 양천구 오목로15길 14 1층 일상상상케페,37.52428663,126.8460384,도서판매/도서대여/커피와 차/장소대관/원데이클래스,카페 : 있음,서울
743,새벽감성1집,독립서점,7903.0,서울특별시 양천구 월정로50길 16-8 101호,37.54134887,126.8316983,"화요일은 오후3시까지 영업. 여행, 고양이, 에세이, 소설, 독립서적 주로 취급",카페 : 있음,서울
744,마녀의만화소굴,만화방,8082.0,서울특별시 양천구 중앙로 262 메디칼프라자 지층 101호,37.51984413,126.8534002,"럭셔리 만화카페 마녀의 만화소굴, 도심 속 작은 휴식공간 편하게 만화도 읽고 간식도 먹으면서 실내데이트 하기 좋은 장소","주차 : 가능, 화장실 남녀구분 : 구분, 카페 : 있음",서울
745,놀숲 신정네거리역점,만화방,8073.0,서울특별시 양천구 중앙로 265,37.51992591,126.8526986,"일상에 즐거운 경험을 더하는 문화공간 카툰앤북카페, 편안한 좌석에서 맛있는 음식과 함께 책도 볼 수 있는 멀티 엔터테인먼트","주차 : 가능, 화장실 남녀구분 : 구분, 카페 : 있음",서울
746,그림책식당,북카페,7299.0,서울특별시 영등포구 도림로128가길 13-8,37.51419623,126.8977716,"그림책에 관련된 다양한 워크샵, 출간 기념회, 이벤트행사 등을 하는 장소","주차 : 가능, 카페 : 있음",서울
747,늘,북카페,7206.0,서울특별시 영등포구 선유로55길 11 1층,37.53778286,126.8978649,세계 곳곳의 다양한 삶의 모습이 담긴 큐레이션 도서들과 일상을 여행의 설렘으로 가득 채워 줄 이벤트,"주차 : 가능, 카페 : 있음",서울
748,향기나무,일반서점,7392.0,서울특별시 영등포구 신풍로25가길 14,37.50096795,126.9184896,"그림교실, 부모교육 참여 및 양육상담신청 카톡으로 가능",카페 : 있음,서울
749,두나미스커피 보라매점,카페,7432.0,서울특별시 영등포구 여의대방로 137,37.49948032,126.9200235,"남녀노소 누구나 이용하능한 열매맺는 문화공간, 스터디룸, 세미나실, 단체예약이 가능",카페 : 있음,서울
750,휴앤안 커피,카페,7432.0,서울특별시 영등포구 여의대방로29길 10 그랑프리텔,37.49974836,126.9188441,"인테리어가 예쁜 카페, 두개의 공간으로 나뉘어 한번에 두개의 카페에 온 듯한 느낌, 빔프로젝터 설치","주차 : 가능, 카페 : 있음",서울
751,어썸북카페,북카페,7228.0,서울특별시 영등포구 영신로 238 번지 미소로프라자 5층,37.52855479,126.9042155,"커피와 음료가 무제한 제공되며, 스터디름 완비되어 그룹스더디 가능",카페 : 있음,서울
752,수만화카페,북카페,7366.0,서울특별시 영등포구 영신로19길 7,37.5142685,126.9069246,만화카페,"화장실 남녀구분 : 구분, 카페 : 있음",서울
753,놀숲 한남점,만화방,4402.0,서울특별시 용산구 대사관로34길 26 2층,37.53209108,127.0056741,"일상에 즐거운 경험을 더하는 문화공간 카툰앤북카페, 편안한 좌석에서 맛있는 음식과 함께 책도 볼 수 있는 멀티 엔터테인먼트",카페 : 있음,서울
754,치읓,일반서점,4338.0,서울특별시 용산구 신흥로 23,37.54063387,126.9867332,북카페,카페 : 있음,서울
755,노들서가,일반서점,4427.0,서울특별시 용산구 양녕로 445 노들서가,37.51766432,126.9580369,책문화 생산자의 플랫폼,"화장실 남녀구분 : 구분, 카페 : 있음",서울
756,북파크,일반서점,4399.0,서울특별시 용산구 이태원로 294,37.54086467,127.0024671,국내외 과학을 비롯한 양서,카페 : 있음,서울
757,놀숲 이태원점,만화방,4391.0,서울특별시 용산구 이태원로20길 2-10 3층,37.53402174,126.9915054,"일상에 즐거운 경험을 더하는 문화공간 카툰앤북카페, 편안한 좌석에서 맛있는 음식과 함께 책도 볼 수 있는 멀티 엔터테인먼트",카페 : 있음,서울
758,놀숲 숙대입구점,만화방,4309.0,서울특별시 용산구 청파로47길 52 지하1층,37.54497283,126.9676467,"일상에 즐거운 경험을 더하는 문화공간 카툰앤북카페, 편안한 좌석에서 맛있는 음식과 함께 책도 볼 수 있는 멀티 엔터테인먼트","화장실 남녀구분 : 구분, 카페 : 있음",서울
759,영풍문고 용산 아이파크몰점,일반서점,4377.0,서울특별시 용산구 한강대로23길 55 아이파크몰 리빙파크 3층,37.52977194,126.9647414,다양한 국내외도서 취급,"주차 : 가능, 카페 : 있음",서울
760,Beleben,독립서점,4345.0,서울특별시 용산구 회나무로12길 5 Beleben 벨리븐,37.53915251,126.989627,국내외 희귀도서 고서 아트북 화보집 만화책 시집 초판본 등 다양한 서적,카페 : 있음,서울
761,더킴,카페,3484.0,서울특별시 은평구 불광천길 390-2,37.5913743,126.9146288,"1층 애완견과 출입할 수 있는 테라스, 2층 창밖 뷰가 좋음, 3층 작은룸과 좌식테이블 입식테이블","화장실 남녀구분 : 구분, 카페 : 있음",서울
762,갈마루,북카페,3332.0,서울특별시 은평구 연서로27길 31-6 갈현2동주민센터,37.6183624,126.9157111,-,"카페 : 있음, 리뷰여부 : 있음",서울
763,놀숲 연신내로데오점,만화방,3330.0,서울특별시 은평구 연서로29길 6 3층,37.61880513,126.9195808,"일상에 즐거운 경험을 더하는 문화공간 카툰앤북카페, 편안한 좌석에서 맛있는 음식과 함께 책도 볼 수 있는 멀티 엔터테인먼트","화장실 남녀구분 : 구분, 카페 : 있음",서울
764,책꼬리,독립서점,3469.0,서울특별시 은평구 응암로16길 22 1층,37.59133423,126.9197903,카페와 책방,카페 : 있음,서울
765,알키미스타 북스,일반서점,3485.0,서울특별시 은평구 응암로9길 24 1층,37.58784699,126.9138736,"책과 함께하는 커피, 술","주차 : 가능, 화장실 남녀구분 : 구분, 카페 : 있음",서울
766,앵프라맹스,일반서점,-,서울특별시 은평구 증산로3길 7 서머나교회,37.60647861,126.9166267,도서 오픈마켓 북코아에서 창립한 서점형 카페,"주차 : 가능, 카페 : 있음, 헌책방 : 있음",서울
767,놀숲 구파발역점,만화방,3306.0,서울특별시 은평구 진관2로 15-8 2층 205호,37.63539411,126.9195602,"커피만 즐길 수 있던 카페와는 다른 만화책도 보고, 맛있는 간식이 있는 문화카페","주차 : 가능, 카페 : 있음",서울
768,한평책빵,일반서점,3371.0,서울특별시 은평구 통일로 684,37.60721125,126.9331786,-,카페 : 있음,서울
769,일공공,일반서점,3385.0,서울특별시 은평구 통일로 833-6 대덕타워 지하1층,37.61766904,126.921505,"IT북카페 겸 스터디카페, 일하고 공부하는 공간","화장실 남녀구분 : 구분, 카페 : 있음",서울
770,일공공,스터디카페,3385.0,서울특별시 은평구 통일로 833-6 대덕타워 지하1층,37.61769019,126.9215292,"IT북카페 겸 스터디카페, 일하고 공부하는 공간 일공공, 일이나 공부를 하기 위해 카페를 가시는 분들께 더 좋은 환경 제공","화장실 남녀구분 : 구분, 카페 : 있음",서울
771,카페 에무,카페,3176.0,서울특별시 종로구 경희궁1가길 7 1층,37.57207802,126.9690166,"사계절 책 향기가 나는 집, 40년 가까이 성장의 의미를 고민해온 사계절 출판사의 철학과 시대정신을 담은 책들을 선보임","주차 : 가능, 카페 : 있음",서울
772,바오로딸 혜화나무,종교서점,3086.0,서울특별시 종로구 대학로12길 38 바오로딸 혜화나무,37.58247613,127.0037166,"가톨릭 수녀들이 운영하는 문화커뮤니케이션센터, 서점 공방","주차 : 가능, 화장실 남녀구분 : 구분, 카페 : 있음",서울
773,문화공간 포엠하우스,북카페,3084.0,서울특별시 종로구 대학로14길 12-1,37.5838532,127.0027086,독서활동 장소,카페 : 있음,서울
774,책방이음,일반서점,3084.0,서울특별시 종로구 대학로14길 12-1,37.5838532,127.0027086,"시민단체 나와 우리에서 운영하는 비영리서점, 공익서점",카페 : 있음,서울
775,어쩌다 산책,일반서점,3086.0,서울특별시 종로구 동숭길 101 지하 1층,37.58246055,127.0040197,몸과 마음의 산책을 위한 서점,카페 : 있음,서울
776,운주문고 Book Cafe,북카페,3060.0,서울특별시 종로구 북촌로1길 11 2층 운주문고 북카페,37.57730964,126.9851403,"전통의 한옥마을 북촌의 동양학 전문서점, 동양철학과 사상 종교, 동교오술 등에 관련된 전문서점",카페 : 있음,서울
777,서경북카페,카페,3169.0,서울특별시 종로구 사직로8길 31 서울지방경찰청,37.574881,126.9719864,독서활동 장소,"카페 : 있음, 리뷰여부 : 있음",서울
778,광화풍림문스페이스본북카페,북카페,3168.0,서울특별시 종로구 사직로8길 4,37.57428766,126.9680751,독서활동 장소,"카페 : 있음, 리뷰여부 : 있음",서울
779,놀숲 종로관철점,만화방,3190.0,서울특별시 종로구 삼일대로17길 8 대신빌딩 3층,37.56927051,126.9871617,"일상에 즐거운 경험을 더하는 문화공간 카툰앤북카페, 편안한 좌석에서 맛있는 음식과 함께 책도 볼 수 있는 멀티 엔터테인먼트","화장실 남녀구분 : 구분, 카페 : 있음",서울
780,과학책방 갈다,일반서점,3050.0,서울특별시 종로구 삼청로10길 18,37.58764353,126.9820428,과학 도서 전문 서점,카페 : 있음,서울
781,인문학카페 메아리,북카페,3182.0,서울특별시 종로구 새문안로5길 11-7,37.57114819,126.9744963,독서활동 장소,"카페 : 있음, 리뷰여부 : 있음",서울
782,북바이북 광화문점,일반서점,3173.0,서울특별시 종로구 새문안로5길 19 로얄빌딩 1층,37.57202953,126.9742933,"서점과 카페, 동네서점",카페 : 있음,서울
783,스타더스트,북카페,3182.0,서울특별시 종로구 새문안로5길 5-7 3층,37.57083701,126.9744468,"광화문에 위치한 카페 & 모임공간, 카페 휴무 여부는 카카오톡채널로 확인","화장실 남녀구분 : 구분, 카페 : 있음",서울
784,풀무질,일반서점,3073.0,서울특별시 종로구 성균관로 19 지하,37.58437913,126.9973231,각종 사회문제에 관련한 도서 다수,카페 : 있음,서울
785,사이에 Tea n Book,카페,3149.0,서울특별시 종로구 인사동5길 14,37.57344568,126.9865088,인사동 신개념 퓨전 복합 문화 공간,"주차 : 가능, 화장실 남녀구분 : 구분, 카페 : 있음",서울
786,부쿠,일반서점,3145.0,서울특별시 종로구 인사동길 49 안녕인사동 4층,37.57446681,126.9835525,큐레이션 서점,"주차 : 가능, 화장실 남녀구분 : 구분, 카페 : 있음",서울
787,사진책방 고래,일반서점,3047.0,서울특별시 종로구 자하문로 106,37.58537066,126.9703405,사진책과 커피를 함께 만날 수 있는 책방,"주차 : 가능, 카페 : 있음",서울
788,학아재,일반서점,3040.0,"서울특별시 종로구 자하문로 7길 36, 지하1층",37.5791979,126.970267,유학 전문 서점,"화장실 남녀구분 : 구분, 카페 : 있음",서울
789,청운효자동 주민센터북카페,북카페,3047.0,서울특별시 종로구 자하문로 92,37.58408878,126.9706189,독서활동 장소,카페 : 있음,서울
790,역사책방,일반서점,3044.0,서울특별시 종로구 자하문로10길 24,37.57921455,126.9728257,역사책 위주의 서점 및 역사 주제의 북토크와 답사,카페 : 있음,서울
791,ofr seoul,일반서점,3043.0,서울특별시 종로구 자하문로12길 11-14,37.58013832,126.9717942,외국 도서 및 소품들과 카페,카페 : 있음,서울
792,길담서원,북카페,3035.0,서울특별시 종로구 자하문로17길 12-9,37.58172448,126.9696548,인문학과 함께 크는 문화 공간,카페 : 있음,서울
793,문화공간 길담,일반서점,3035.0,서울특별시 종로구 자하문로17길 12-9,37.58172448,126.9696548,"작은 갤러리, 차와 커피","카페 : 있음, 헌책방 : 있음",서울
794,베어카페,북카페,3042.0,서울특별시 종로구 자하문로24길 24,37.58286356,126.971237,출판사 디잔인이음에서 운영하는 베어카페,카페 : 있음,서울
795,비화림,독립서점,3057.0,서울특별시 종로구 창덕궁길 153 1층 비화림서점,37.582997,126.9874505,큐레이션 서점,카페 : 있음,서울
796,레드북스,일반서점,3180.0,서울특별시 종로구 통일로 150-1,37.56774737,126.9650947,"인문사회서적, 커피, 모임",카페 : 있음,서울
797,북커스,북카페,3004.0,서울특별시 종로구 평창30길 10 2층,37.61092391,126.975142,독서활동 장소,"화장실 남녀구분 : 구분, 카페 : 있음",서울
798,ileile,북카페,3040.0,서울특별시 종로구 필운대로2길 23,37.57923555,126.9697274,-,카페 : 있음,서울
799,혜화마을 북카페,도서관,3076.0,서울특별시 종로구 혜화로 12,37.58699421,127.0005336,독서활동 장소,카페 : 있음,서울
800,PIT A PAT,북카페,3075.0,서울특별시 종로구 혜화로3길 5 아남아파트 상가 301동 108호,37.58596314,127.0002297,혜화에 있는 조용한 북카페,"주차 : 가능, 화장실 남녀구분 : 구분, 카페 : 있음",서울
